org_name,org_city,org_state,lat,lon,week,current_loss,current_econ_loss,current_job_loss,overall_loss,overall_econ_loss,overall_job_loss
Academic Pediatric Association,Mc Lean,VA,38.93747,-77.17694,2025-02-28,0,0,0,0,0,0
Access Health Inc.,Muskegon,MI,43.23096,-86.24311,2025-02-28,0,0,0,0,0,0
"Accurius Therapeutics, Inc.",Lexington,MA,42.45835,-71.20621,2025-02-28,0,0,0,0,0,0
Alabama State University,Montgomery,AL,32.36501,-86.2957,2025-02-28,0,0,0,0,0,0
Albert Einstein College of Medicine,Bronx,NY,40.85103,-73.84438,2025-02-28,0,0,0,0,0,0
Allen Institute,Seattle,WA,47.65008,-122.3516,2025-02-28,0,0,0,0,0,0
American Gastroenterological Association Institute,Bethesda,MD,38.98933,-77.0992,2025-02-28,0,0,0,0,0,0
American Psychological Association,Washington,DC,38.89984,-77.00754,2025-02-28,0,0,0,0,0,0
American Society for Bone & Mineral Research,Washington,DC,38.90596,-77.04579,2025-02-28,0,0,0,0,0,0
"American Society of Nephrology, Inc.",Washington,DC,38.89999,-77.03432,2025-02-28,0,0,0,0,0,0
American University,Washington,DC,38.93695,-77.08947,2025-02-28,0,0,0,0,0,0
Arizona State University-Tempe Campus,Scottsdale,AZ,33.42395,-111.94069,2025-02-28,0,0,0,0,0,0
Arkansas Cancer Coalition,Little Rock,AR,34.75984,-92.34041,2025-02-28,0,0,0,0,0,0
Asian American Health Coalition,Houston,TX,29.71509,-95.55379,2025-02-28,0,0,0,0,0,0
Asian Community Health Coalition,Philadelphia,PA,39.9607,-75.15706,2025-02-28,0,0,0,0,0,0
Auburn University at Auburn,Auburn,AL,32.60214,-85.5085,2025-02-28,0,0,0,0,0,0
Augusta University,Augusta,GA,33.47096,-81.9914,2025-02-28,0,0,0,0,0,0
Banner Health,Phoenix,AZ,33.43342,-112.08759,2025-02-28,0,0,0,0,0,0
Baylor College of Medicine,Houston,TX,29.70926,-95.40085,2025-02-28,0,0,0,0,0,0
Baylor University,Waco,TX,31.55571,-97.1214,2025-02-28,0,0,0,0,0,0
Beckman Research Institute,Duarte,CA,34.12772,-117.97244,2025-02-28,0,0,0,0,0,0
"Bellage, Inc.",Sunnyside,NY,40.74767,-73.9181,2025-02-28,0,0,0,0,0,0
Bentley University,Waltham,MA,42.38883,-71.22023,2025-02-28,0,0,0,0,0,0
Beth Israel Deaconess Medical Center,Boston,MA,42.33982,-71.10568,2025-02-28,0,0,0,0,0,0
Boston Children's Hospital,Boston,MA,42.33748,-71.10496,2025-02-28,1524829.77,3415599.0130384685,12.046155183000002,1524829.77,3415599.0130384685,12.046155183000002
Boston College,Chestnut Hill,MA,42.33696,-71.1705,2025-02-28,0,0,0,0,0,0
Boston Medical Center,Boston,MA,42.33685,-71.07088,2025-02-28,0,0,0,0,0,0
Boston University,Boston,MA,42.33639,-71.07097,2025-02-28,0,0,0,0,0,0
Boston University,Boston,MA,42.34959,-71.09973,2025-02-28,0,0,0,0,0,0
Brandeis University,Waltham,MA,42.36638,-71.25452,2025-02-28,0,0,0,0,0,0
Brigham and Women's Hospital,Boston,MA,42.33611,-71.10748,2025-02-28,0,0,0,0,0,0
"Broad Institute, Inc.",Cambridge,MA,42.36308,-71.08789,2025-02-28,0,0,0,0,0,0
"Bronxworks, Inc.",Bronx,NY,40.851,-73.9081,2025-02-28,0,0,0,0,0,0
Brooklyn College,New York,NY,40.63164,-73.95287,2025-02-28,0,0,0,0,0,0
Brown University,Providence,RI,41.82614,-71.40451,2025-02-28,824279.6699999999,1715374.4000992551,6.0996695579999995,824279.6699999999,1715374.4000992551,6.0996695579999995
Butler Hospital,Providence,RI,41.84359,-71.37966,2025-02-28,0,0,0,0,0,0
California Institute of Technology,Pasadena,CA,34.13433,-118.12652,2025-02-28,0,0,0,0,0,0
"California Polytechnic State University, San Luis Obispo",San Luis Obispo,CA,35.29932,-120.65662,2025-02-28,0,0,0,0,0,0
California State University - Dominguez Hills,Carson,CA,33.86714,-118.25534,2025-02-28,0,0,0,0,0,0
California State University Bakersfield,Bakersfield,CA,35.35426,-119.10759,2025-02-28,0,0,0,0,0,0
California State University Fullerton,Fullerton,CA,33.8781,-117.88425,2025-02-28,0,0,0,0,0,0
California State University Long Beach,Long Beach,CA,33.7811,-118.1099,2025-02-28,0,0,0,0,0,0
California State University Los Angeles,Los Angeles,CA,34.06254,-118.16904,2025-02-28,0,0,0,0,0,0
California State University Northridge,Northridge,CA,34.24588,-118.50188,2025-02-28,0,0,0,0,0,0
California State University Sacramento,Sacramento,CA,38.55385,-121.42126,2025-02-28,0,0,0,0,0,0
California State University San Bernardino,San Bernardino,CA,34.17678,-117.33018,2025-02-28,0,0,0,0,0,0
California State University San Marcos,San Marcos,CA,33.13799,-117.15109,2025-02-28,0,0,0,0,0,0
Cambridge Health Alliance,Cambridge,MA,42.37442,-71.10444,2025-02-28,0,0,0,0,0,0
Campesinos Sin Fronteras,Somerton,AZ,32.59632,-114.7127,2025-02-28,0,0,0,0,0,0
Carnegie-Mellon University,Pittsburgh,PA,40.44296,-79.94108,2025-02-28,0,0,0,0,0,0
Case Western Reserve University,Cleveland,OH,41.50274,-81.60733,2025-02-28,0,0,0,0,0,0
Cedars-Sinai Medical Center,Los Angeles,CA,34.07654,-118.38,2025-02-28,0,0,0,0,0,0
Center for Innovative Public Health Research,San Clemente,CA,33.43004,-117.61655,2025-02-28,0,0,0,0,0,0
Central Michigan University,Mount Pleasant,MI,43.6014,-84.78711,2025-02-28,0,0,0,0,0,0
Charles R. Drew University of Medicine & Science,Los Angeles,CA,33.92395,-118.24569,2025-02-28,0,0,0,0,0,0
Cherokee Nation,Tahlequah,OK,35.85318,-94.99067,2025-02-28,0,0,0,0,0,0
Children's Hospital of Los Angeles,Los Angeles,CA,34.09806,-118.29069,2025-02-28,0,0,0,0,0,0
Children's Hospital of Philadelphia,Philadelphia,PA,39.94663,-75.1966,2025-02-28,0,0,0,0,0,0
Children's Research Institute,Washington,DC,38.92727,-77.0144,2025-02-28,0,0,0,0,0,0
Cincinnati Children's Hospital Medical Center,Cincinnati,OH,39.14066,-84.50101,2025-02-28,0,0,0,0,0,0
City College of New York,New York,NY,40.81941,-73.95017,2025-02-28,0,0,0,0,0,0
Claflin University,Orangeburg,SC,33.49592,-80.85546,2025-02-28,0,0,0,0,0,0
Claremont Graduate University,Claremont,CA,34.10328,-117.71447,2025-02-28,0,0,0,0,0,0
Clark Atlanta University,Atlanta,GA,33.74773,-84.41301,2025-02-28,0,0,0,0,0,0
Clarkson University,Potsdam,NY,44.65482,-74.95554,2025-02-28,0,0,0,0,0,0
Clemson University,Clemson,SC,34.67315,-82.82396,2025-02-28,0,0,0,0,0,0
Cleveland Clinic Lerner College of Medicine - Case Western Reserve University,Cleveland,OH,41.50266,-81.62213,2025-02-28,0,0,0,0,0,0
Cold Spring Harbor Laboratory,Cold Spring Harbor,NY,40.86755,-73.47346,2025-02-28,0,0,0,0,0,0
Colliga Apps Corp.,Austin,TX,25.76305,-80.19045,2025-02-28,0,0,0,0,0,0
Colorado School of Mines,Golden,CO,39.75113,-105.22231,2025-02-28,0,0,0,0,0,0
Colorado State University,Fort Collins,CO,40.57951,-105.08127,2025-02-28,0,0,0,0,0,0
Columbia University,New York,NY,40.8101,-73.9606,2025-02-28,0,0,0,0,0,0
Columbia University,New York,NY,40.81207,-73.95438,2025-02-28,0,0,0,0,0,0
Columbia University,New York,NY,40.8415,-73.9414,2025-02-28,0,0,0,0,0,0
Cornell University,Ithaca,NY,42.438,-76.4625,2025-02-28,0,0,0,0,0,0
Creighton University,Omaha,NE,41.2643,-95.94809,2025-02-28,0,0,0,0,0,0
Dana-Farber Cancer Institute,Boston,MA,42.33759,-71.10828,2025-02-28,0,0,0,0,0,0
Dartmouth College,Hanover,NH,43.71139,-72.27061,2025-02-28,0,0,0,0,0,0
Dartmouth-Hitchcock Clinic,Lebanon,NH,43.63701,-72.25238,2025-02-28,0,0,0,0,0,0
Delaware State University,Dover,DE,39.18938,-75.54117,2025-02-28,0,0,0,0,0,0
"Delta Health Alliance, Inc.",Stoneville,MS,33.40757,-90.91122,2025-02-28,0,0,0,0,0,0
Denver Health and Hospital Authority,Denver,CO,39.7273,-104.99157,2025-02-28,0,0,0,0,0,0
Dillard University,New Orleans,LA,29.99621,-90.06596,2025-02-28,0,0,0,0,0,0
Drexel University,Philadelphia,PA,39.95407,-75.18654,2025-02-28,0,0,0,0,0,0
Duke University,Durham,NC,36.00777,-78.92648,2025-02-28,0,0,0,0,0,0
Duquesne University,Pittsburgh,PA,40.43782,-79.99365,2025-02-28,0,0,0,0,0,0
East Carolina University,Greenville,NC,35.60836,-77.3648,2025-02-28,0,0,0,0,0,0
East Tennessee State University,Johnson City,TN,36.33089,-82.36558,2025-02-28,0,0,0,0,0,0
Eastern Michigan University,Ypsilanti,MI,42.23313,-83.62377,2025-02-28,0,0,0,0,0,0
"Ecohealth Alliance, Inc.",New York,NY,40.75406,-73.99895,2025-02-28,5716314.399999999,13474962.805621892,40.585832239999995,5716314.399999999,13474962.805621892,40.585832239999995
Emma Pendleton Bradley Hospital,Riverside,RI,41.79238,-71.3674,2025-02-28,0,0,0,0,0,0
Emory University,Atlanta,GA,33.79125,-84.3249,2025-02-28,16098.419999999984,47282.72939893477,0.1899613559999998,16098.419999999984,47282.72939893477,0.1899613559999998
Endeavor Health Clinical Operations,Evanston,IL,42.0647,-87.68987,2025-02-28,0,0,0,0,0,0
Endocrine Society,Washington,DC,38.90411,-77.04616,2025-02-28,0,0,0,0,0,0
"Equiti Foods, LLC",Chapel Hill,NC,35.90131,-79.06105,2025-02-28,0,0,0,0,0,0
"Families Against Narcotics, Inc.",Clinton Twp,MI,42.55372,-82.92816,2025-02-28,0,0,0,0,0,0
Family Health International,Durham,NC,35.99283,-78.90391,2025-02-28,0,0,0,0,0,0
Father Flanagan's Boys' Home,Boys Town,NE,41.25345,-96.13386,2025-02-28,0,0,0,0,0,0
Fayetteville State University,Fayetteville,NC,35.07155,-78.89445,2025-02-28,0,0,0,0,0,0
Fenway Community Health Center,Boston,MA,42.34412,-71.09841,2025-02-28,0,0,0,0,0,0
Feonix - Mobility Rising,Lincoln,NE,40.85914,-96.72561,2025-02-28,0,0,0,0,0,0
Florida A&M University,Tallahassee,FL,30.42891,-84.28977,2025-02-28,0,0,0,0,0,0
Florida International University,Miami,FL,25.76105,-80.3762,2025-02-28,0,0,0,0,0,0
Florida State University,Tallahassee,FL,30.44146,-84.29789,2025-02-28,0,0,0,0,0,0
Fordham University,Bronx,NY,40.86209,-73.88639,2025-02-28,0,0,0,0,0,0
Fort Lewis College,Durango,CO,37.27498,-107.87204,2025-02-28,0,0,0,0,0,0
Fred Hutchinson Cancer Center,Seattle,WA,47.62648,-122.32961,2025-02-28,0,0,0,0,0,0
"Friends Research Institute, Inc.",Baltimore,MD,39.30368,-76.61989,2025-02-28,0,0,0,0,0,0
"Function Promoting Therapies, LLC",Boston,MA,42.33724,-71.10217,2025-02-28,0,0,0,0,0,0
"Genendeavor, LLC",Hayward,CA,37.52099,-121.94829,2025-02-28,0,0,0,0,0,0
Genetobe Inc.,Ann Arbor,MI,42.32232,-83.65208,2025-02-28,0,0,0,0,0,0
George Washington University,Washington,DC,38.89808,-77.04393,2025-02-28,0,0,0,0,0,0
Georgetown University,Washington,DC,38.90521,-77.07547,2025-02-28,0,0,0,0,0,0
Georgia Institute of Technology,Atlanta,GA,33.7819,-84.40401,2025-02-28,0,0,0,0,0,0
Georgia State University,Atlanta,GA,33.75353,-84.38448,2025-02-28,0,0,0,0,0,0
Gerontological Society of America,Washington,DC,38.90339,-77.02915,2025-02-28,0,0,0,0,0,0
Gladstone Institutes,San Francisco,CA,37.76762,-122.39432,2025-02-28,0,0,0,0,0,0
Gordon Research Conferences,East Greenwich,RI,41.48,-71.56965,2025-02-28,0,0,0,0,0,0
Hackensack University Medical Center,Hackensack,NJ,40.88342,-74.05565,2025-02-28,0,0,0,0,0,0
Hampton University,Hampton,VA,37.02566,-76.34773,2025-02-28,0,0,0,0,0,0
Hartford Hospital,Hartford,CT,41.75412,-72.67985,2025-02-28,0,0,0,0,0,0
"Harvard Pilgrim Health Care, Inc.",Canton,MA,42.31681,-71.2346,2025-02-28,0,0,0,0,0,0
Harvard University,Boston,MA,42.33531,-71.10277,2025-02-28,1821722.7,4080635.3460358884,14.391609330000001,1821722.7,4080635.3460358884,14.391609330000001
Harvard University,Boston,MA,42.33567,-71.10424,2025-02-28,0,0,0,0,0,0
Harvard University,Cambridge,MA,42.3697,-71.11193,2025-02-28,0,0,0,0,0,0
"Health Choice Network, Inc.",Miami,FL,25.78484,-80.34186,2025-02-28,0,0,0,0,0,0
Healthpartners Institute,Bloomington,MN,44.85364,-93.22558,2025-02-28,0,0,0,0,0,0
Healthy Tarrant County Collaboration,Fort Worth,TX,32.76545,-97.25287,2025-02-28,0,0,0,0,0,0
Hebrew Rehabilitation Center for Aged,Boston,MA,42.29668,-71.13073,2025-02-28,0,0,0,0,0,0
Hennepin Healthcare Research Institute,Minneapolis,MN,44.9721,-93.2624,2025-02-28,0,0,0,0,0,0
Herbert H. Lehman College,New York,NY,40.87086,-73.8866,2025-02-28,0,0,0,0,0,0
Hopa Mountain,Bozeman,MT,45.67802,-111.03301,2025-02-28,0,0,0,0,0,0
Hospital for Special Surgery,New York,NY,40.76532,-73.95395,2025-02-28,0,0,0,0,0,0
Housing Authority of the City of Los Angeles,Los Angeles,CA,34.06041,-118.28167,2025-02-28,0,0,0,0,0,0
Howard University,Washington,DC,38.92314,-77.02158,2025-02-28,0,0,0,0,0,0
Hugo W. Moser Research Institute Kennedy Krieger,Baltimore,MD,39.2987,-76.59368,2025-02-28,0,0,0,0,0,0
Hunter College,New York,NY,40.76874,-73.96518,2025-02-28,100684.75,237342.30946837686,0.714861725,100684.75,237342.30946837686,0.714861725
Ibis Reproductive Health,Cambridge,MA,42.37281,-71.1191,2025-02-28,0,0,0,0,0,0
Icahn School of Medicine at Mount Sinai,New York,NY,40.79028,-73.94678,2025-02-28,0,0,0,0,0,0
Illinois Institute of Technology,Chicago,IL,41.83106,-87.62905,2025-02-28,0,0,0,0,0,0
Indiana University,Bloomington,IN,39.17206,-86.52316,2025-02-28,0,0,0,0,0,0
Indiana University Indianapolis,Indianapolis,IN,39.77921,-86.17529,2025-02-28,0,0,0,0,0,0
"Innovation Research and Training, Inc.",Durham,NC,35.96456,-78.94053,2025-02-28,0,0,0,0,0,0
Institute for Systems Biology,Seattle,WA,47.62254,-122.33753,2025-02-28,0,0,0,0,0,0
"Iris Media, Inc.",Eugene,OR,44.04872,-123.08848,2025-02-28,0,0,0,0,0,0
"Isa Associates, Inc.",Arlington,VA,38.80541,-77.03984,2025-02-28,0,0,0,0,0,0
Jackson Laboratory,Bar Harbor,ME,44.36536,-68.1963,2025-02-28,0,0,0,0,0,0
Johns Hopkins University,Baltimore,MD,39.32526,-76.60513,2025-02-28,0,0,0,0,0,0
Kaiser Foundation Research Institute,Oakland,CA,37.80577,-122.26521,2025-02-28,0,0,0,0,0,0
Kean University,Union,NJ,40.67958,-74.23188,2025-02-28,0,0,0,0,0,0
Keck Graduate Institute of Applied Life Sciences,Claremont,CA,34.09248,-117.72201,2025-02-28,0,0,0,0,0,0
Kennesaw State University,Kennesaw,GA,34.03432,-84.57428,2025-02-28,0,0,0,0,0,0
Kent State University,Kent,OH,41.15242,-81.33788,2025-02-28,0,0,0,0,0,0
LSU Health Scienes Center,New Orleans,LA,29.95738,-90.08279,2025-02-28,0,0,0,0,0,0
LSU Pennington Biomedical Research Center,Baton Rouge,LA,30.40335,-91.12269,2025-02-28,0,0,0,0,0,0
La Jolla Institute for Immunology,La Jolla,CA,32.83878,-117.25324,2025-02-28,0,0,0,0,0,0
Laureate Institute for Brain Research,Tulsa,OK,36.06624,-95.91946,2025-02-28,0,0,0,0,0,0
Loma Linda University,Loma Linda,CA,34.05174,-117.26178,2025-02-28,0,0,0,0,0,0
Louisiana State University A&M College Baton Rouge,Baton Rouge,LA,30.40802,-91.18867,2025-02-28,0,0,0,0,0,0
Loyola Marymount University,Los Angeles,CA,33.96968,-118.41614,2025-02-28,0,0,0,0,0,0
Loyola University Medical Center,Maywood,IL,41.86516,-87.83338,2025-02-28,0,0,0,0,0,0
Loyola University of Chicago,Chicago,IL,41.89738,-87.62424,2025-02-28,0,0,0,0,0,0
Lurie Children's Hospital of Chicago,Chicago,IL,41.89666,-87.62292,2025-02-28,0,0,0,0,0,0
MGH Institute of Health Professions,Charlestown,MA,42.37496,-71.05421,2025-02-28,0,0,0,0,0,0
Magee-Women's Research Institute and Foundation,Pittsburgh,PA,40.43708,-79.96154,2025-02-28,0,0,0,0,0,0
Mainehealth,Portland,ME,43.65316,-70.27547,2025-02-28,0,0,0,0,0,0
Marquette University,Milwaukee,WI,43.03873,-87.92331,2025-02-28,0,0,0,0,0,0
Massachusetts General Hospital,Boston,MA,42.3632,-71.06877,2025-02-28,0,0,0,0,0,0
Mayo Clinic Arizona,Scottsdale,AZ,33.58911,-111.79394,2025-02-28,0,0,0,0,0,0
Mayo Clinic Jacksonville,Jacksonville,FL,30.2647,-81.44479,2025-02-28,0,0,0,0,0,0
Mayo Clinic Rochester,Rochester,MN,44.02432,-92.46011,2025-02-28,0,0,0,0,0,0
McLean Hospital,Belmont,MA,42.39362,-71.19114,2025-02-28,0,0,0,0,0,0
Medgar Evers College,New York,NY,40.66714,-73.95183,2025-02-28,0,0,0,0,0,0
Medical College of Wisconsin,Milwaukee,WI,43.04575,-88.02037,2025-02-28,0,0,0,0,0,0
Medical University of South Carolina,Charleston,SC,32.78675,-79.94726,2025-02-28,0,0,0,0,0,0
Meharry Medical College,Nashville,TN,36.1669,-86.80615,2025-02-28,0,0,0,0,0,0
Michigan State University,East Lansing,MI,42.65398,-84.49203,2025-02-28,0,0,0,0,0,0
"Migrant Clinicians Network, Inc.",Austin,TX,30.26688,-97.78802,2025-02-28,0,0,0,0,0,0
"Missouri Breaks Research, Inc.",Eagle Butte,SD,45.4277,-101.07448,2025-02-28,0,0,0,0,0,0
Moffitt Cancer Center,Tampa,FL,28.06258,-82.4196,2025-02-28,0,0,0,0,0,0
Monell Chemical Senses Center,Philadelphia,PA,39.95574,-75.19306,2025-02-28,0,0,0,0,0,0
Montana State University - Bozeman,Bozeman,MT,45.66196,-111.05994,2025-02-28,0,0,0,0,0,0
Morehouse School of Medicine,Atlanta,GA,33.74661,-84.41478,2025-02-28,0,0,0,0,0,0
Mount Desert Island Biological Lab,Salsbury Cove,ME,44.43066,-68.28841,2025-02-28,0,0,0,0,0,0
"My Brother's Keeper, Inc.",Ridgeland,MS,32.41974,-90.12573,2025-02-28,0,0,0,0,0,0
"NDRI-USA, Inc.",New York,NY,40.74287,-73.99233,2025-02-28,0,0,0,0,0,0
National Medical Association,Silver Spring,MD,38.99487,-77.03025,2025-02-28,0,0,0,0,0,0
National Opinion Research Center,Chicago,IL,41.78587,-87.59754,2025-02-28,0,0,0,0,0,0
Neurovations,Napa,CA,38.32538,-122.29199,2025-02-28,0,0,0,0,0,0
New Jersey Institute of Technology,Newark,NJ,40.74292,-74.17624,2025-02-28,0,0,0,0,0,0
New Mexico State University Las Cruces,Las Cruces,NM,32.27904,-106.7557,2025-02-28,0,0,0,0,0,0
New School University,New York,NY,40.73538,-73.99724,2025-02-28,0,0,0,0,0,0
New York Blood Center,New York,NY,40.76519,-73.95992,2025-02-28,0,0,0,0,0,0
New York Hall of Science,Corona,NY,40.75257,-73.85476,2025-02-28,0,0,0,0,0,0
New York Medical College,Valhalla,NY,41.08553,-73.81025,2025-02-28,0,0,0,0,0,0
New York University,Mineola,NY,40.7415,-73.64036,2025-02-28,0,0,0,0,0,0
New York University,New York,NY,40.66989,-73.97435,2025-02-28,0,0,0,0,0,0
New York University,New York,NY,40.72966,-73.99702,2025-02-28,0,0,0,0,0,0
North Carolina A&T State University,Greensboro,NC,36.07418,-79.77596,2025-02-28,0,0,0,0,0,0
North Carolina Central University,Durham,NC,35.97467,-78.89805,2025-02-28,0,0,0,0,0,0
North Carolina Department of Health and Human Services,Raleigh,NC,35.67064,-78.66373,2025-02-28,0,0,0,0,0,0
North Carolina State University Raleigh,Raleigh,NC,35.78468,-78.67723,2025-02-28,0,0,0,0,0,0
Northeastern University,Boston,MA,42.34005,-71.08889,2025-02-28,0,0,0,0,0,0
Northwestern University,Chicago,IL,42.05048,-87.68005,2025-02-28,22673.600000000006,64861.15674470459,0.22446864000000005,22673.600000000006,64861.15674470459,0.22446864000000005
Nova Southeastern University,Fort Lauderdale-Davie,FL,26.07761,-80.24256,2025-02-28,0,0,0,0,0,0
"Ochin, Inc.",Portland,OR,45.50926,-122.67766,2025-02-28,0,0,0,0,0,0
Ohio State University,Columbus,OH,39.9996,-83.03313,2025-02-28,0,0,0,0,0,0
Oklahoma Medical Research Foundation,Oklahoma City,OK,35.48299,-97.49781,2025-02-28,0,0,0,0,0,0
Oklahoma State University Stillwater,Stillwater,OK,36.11563,-97.05804,2025-02-28,0,0,0,0,0,0
Old Dominion University,Norfolk,VA,36.88899,-76.30348,2025-02-28,0,0,0,0,0,0
Olipha Inc,Wilmington,DE,39.74854,-75.54767,2025-02-28,0,0,0,0,0,0
Oregon Health & Science University,Portland,OR,45.49882,-122.68565,2025-02-28,0,0,0,0,0,0
Pacific Institute for Research and Evaluation,Beltsville,MD,39.05068,-76.93727,2025-02-28,0,0,0,0,0,0
Pennsylvania State University,University Park,PA,40.87072,-77.83415,2025-02-28,0,0,0,0,0,0
Pennsylvania State University Hershey Medical Center,Hershey,PA,40.26441,-76.67401,2025-02-28,0,0,0,0,0,0
Portland State University,Portland,OR,45.51201,-122.67948,2025-02-28,0,0,0,0,0,0
"Powertech Water, Inc.",Lexington,KY,38.03558,-84.50572,2025-02-28,0,0,0,0,0,0
Prairie View A&M University,Prairie View,TX,30.08133,-95.99286,2025-02-28,0,0,0,0,0,0
Princeton University,Princeton,NJ,40.34544,-74.65587,2025-02-28,0,0,0,0,0,0
Priogen Corp,Saint Paul,MN,44.97119,-93.2042,2025-02-28,0,0,0,0,0,0
"Pro-Change Behavior Systems, Inc.",Narragansett,RI,41.45103,-71.49752,2025-02-28,0,0,0,0,0,0
Public Health Foundation Enterprises,City Of Industry,CA,34.02948,-118.02327,2025-02-28,0,0,0,0,0,0
Purdue University,West Lafayette,IN,40.41872,-86.91036,2025-02-28,0,0,0,0,0,0
Queen's Medical Center,Honolulu,HI,21.3078,-157.85395,2025-02-28,0,0,0,0,0,0
Queens College,Flushing,NY,40.73586,-73.81575,2025-02-28,0,0,0,0,0,0
Rand Corporation,Santa Monica,CA,34.00966,-118.49094,2025-02-28,0,0,0,0,0,0
Rensselaer Polytechnic Institute,Troy,NY,42.73286,-73.68349,2025-02-28,0,0,0,0,0,0
Research Institute Nationwide Children's Hosp,Columbus,OH,39.95251,-82.9793,2025-02-28,0,0,0,0,0,0
Research Triangle Institute,Research Triangle Park,NC,35.9138,-78.84891,2025-02-28,0,0,0,0,0,0
"Resilient Games Studio, LLC",Chicago,IL,41.79896,-87.59808,2025-02-28,0,0,0,0,0,0
Rhode Island Hospital,Providence,RI,41.81168,-71.40937,2025-02-28,0,0,0,0,0,0
Rice University,Houston,TX,29.71724,-95.40276,2025-02-28,0,0,0,0,0,0
Rochester Institute of Technology,Rochester,NY,43.09217,-77.67477,2025-02-28,0,0,0,0,0,0
Rockefeller University,New York,NY,40.76375,-73.95539,2025-02-28,0,0,0,0,0,0
Rosalind Franklin University of Medicine & Science,North Chicago,IL,42.30229,-87.86138,2025-02-28,0,0,0,0,0,0
Roswell Park Cancer Institute Corp,Buffalo,NY,42.87338,-78.86924,2025-02-28,0,0,0,0,0,0
Rowan University,Glassboro,NJ,39.70772,-75.1169,2025-02-28,0,0,0,0,0,0
Rush University Medical Center,Chicago,IL,41.87506,-87.66833,2025-02-28,0,0,0,0,0,0
Rutgers Biomedical and Health Sciences,Newark,NJ,40.52098,-74.47325,2025-02-28,0,0,0,0,0,0
Rutgers University,Piscataway,NJ,40.48191,-74.45707,2025-02-28,0,0,0,0,0,0
"Rutgers, Camden",Camden,NJ,39.94748,-75.12305,2025-02-28,0,0,0,0,0,0
"Rutgers, Newark",Newark,NJ,40.74054,-74.17268,2025-02-28,0,0,0,0,0,0
SUNY Downstate Medical Center,Brooklyn,NY,40.65537,-73.94508,2025-02-28,0,0,0,0,0,0
SUNY Upstate Medical University,Syracuse,NY,43.0426,-76.14055,2025-02-28,0,0,0,0,0,0
Sam Houston State University,Huntsville,TX,30.71521,-95.54934,2025-02-28,0,0,0,0,0,0
San Diego State University,San Diego,CA,32.76218,-117.06916,2025-02-28,0,0,0,0,0,0
San Francisco Department of Public Health,San Francisco,CA,37.77813,-122.41865,2025-02-28,0,0,0,0,0,0
San Francisco State University,San Francisco,CA,37.72091,-122.47607000000001,2025-02-28,0,0,0,0,0,0
San Jose State University,San Jose,CA,37.34094,-121.88941,2025-02-28,0,0,0,0,0,0
Sanford Burnham Prebys,La Jolla,CA,32.9036,-117.24298,2025-02-28,0,0,0,0,0,0
Scripps Health,San Diego,CA,32.88774,-117.2238,2025-02-28,0,0,0,0,0,0
Scripps Research Institute,La Jolla,CA,32.90306,-117.24359,2025-02-28,0,0,0,0,0,0
Seattle Children's Hospital,Seattle,WA,47.66243,-122.28229,2025-02-28,14677.280000000028,35477.155485248826,0.11448278400000021,14677.280000000028,35477.155485248826,0.11448278400000021
Silverbills Inc.,New Rochelle,NY,40.94685,-73.77205,2025-02-28,114680.93000000017,270335.2471767701,0.8142346030000012,114680.93000000017,270335.2471767701,0.8142346030000012
Sloan-Kettering Institute Cancer Research,New York,NY,40.76405,-73.95602,2025-02-28,0,0,0,0,0,0
Smith-Kettlewell Eye Research Institute,San Francisco,CA,37.79118,-122.43391,2025-02-28,0,0,0,0,0,0
Society of Behavioral Medicine,Milwaukee,WI,43.04122,-87.90483,2025-02-28,0,0,0,0,0,0
Society of Toxicology,Reston,VA,38.94847,-77.33236,2025-02-28,0,0,0,0,0,0
Southcentral Foundation,Anchorage,AK,61.18215,-149.79596,2025-02-28,0,0,0,0,0,0
Southeast Arizona Area Health Education Center,Nogales,AZ,31.3407,-110.96079,2025-02-28,0,0,0,0,0,0
Southern Illinois University at Edwardsville,Edwardsville,IL,38.8113,-89.95664,2025-02-28,0,0,0,0,0,0
Spaulding Rehabilitation Hospital,Charlestown,MA,42.37856,-71.04922,2025-02-28,0,0,0,0,0,0
Spelman College,Atlanta,GA,33.74525,-84.41146,2025-02-28,0,0,0,0,0,0
St. Catherine University,St. Paul,MN,44.92488,-93.18313,2025-02-28,0,0,0,0,0,0
St. Jude Children's Research Hospital,Memphis,TN,35.15435,-90.04362,2025-02-28,0,0,0,0,0,0
St. Jude Children's Research Hospital,Memphis,TN,35.15561,-90.04528,2025-02-28,0,0,0,0,0,0
St. Mary's University,San Antonio,TX,29.45193,-98.5606,2025-02-28,0,0,0,0,0,0
Stanford University,Stanford,CA,37.42685,-122.17047,2025-02-28,0,0,0,0,0,0
State University New York Stony Brook,Stony Brook,NY,40.91456,-73.12517,2025-02-28,0,0,0,0,0,0
State University of New York at Albany,Albany,NY,42.69171,-73.82559,2025-02-28,0,0,0,0,0,0
State University of New York at Buffalo,Amherst,NY,43.00307,-78.78592,2025-02-28,0,0,0,0,0,0
"State University of New York, Binghamton",Binghamton,NY,42.09521,-75.96456,2025-02-28,0,0,0,0,0,0
"Subtle Medical, Inc.",Menlo Park,CA,37.450920000000004,-122.18522,2025-02-28,0,0,0,0,0,0
Syracuse University,Syracuse,NY,43.04158,-76.13378,2025-02-28,0,0,0,0,0,0
Tech Museum of Innovation,San Jose,CA,37.33148,-121.89018,2025-02-28,0,0,0,0,0,0
Temple University of the Commonwealth,Philadelphia,PA,39.98027,-75.15705,2025-02-28,0,0,0,0,0,0
Tennessee State University,Nashville,TN,36.16833,-86.82852,2025-02-28,0,0,0,0,0,0
Texas A&M University,College Station,TX,30.55165,-96.24288,2025-02-28,0,0,0,0,0,0
Texas A&M University,College Station,TX,30.60588,-96.36877,2025-02-28,0,0,0,0,0,0
Texas Engineering Experiment Station,College Station,TX,30.56154,-96.25321,2025-02-28,0,0,0,0,0,0
Texas State University,San Marcos,TX,29.88877,-97.93744,2025-02-28,0,0,0,0,0,0
Texas Tech University,Lubbock,TX,33.5847,-101.87277,2025-02-28,0,0,0,0,0,0
Texas Tech University Health Sciences Center El Paso,El Paso,TX,31.77,-106.43162,2025-02-28,0,0,0,0,0,0
The Academy of Natural Sciences of Philadelphia,Philadelphia,PA,39.95795,-75.17145,2025-02-28,0,0,0,0,0,0
The Baker Center,Boston,MA,42.33093,-71.10991,2025-02-28,0,0,0,0,0,0
"The Research Foundation for Mental Hygiene, Inc.",New York,NY,40.84308,-73.94421,2025-02-28,0,0,0,0,0,0
Thomas Jefferson University,Philadelphia,PA,39.94821,-75.15782,2025-02-28,0,0,0,0,0,0
Tufts Medical Center,Boston,MA,42.34951,-71.06331,2025-02-28,0,0,0,0,0,0
Tufts University,Boston,MA,42.3498,-71.06149,2025-02-28,0,0,0,0,0,0
Tufts University,Boston,MA,42.40117,-71.12536,2025-02-28,0,0,0,0,0,0
Tulane University of Louisiana,New Orleans,LA,29.93543,-90.12279,2025-02-28,0,0,0,0,0,0
University of Alabama,Tuscaloosa,AL,33.21566,-87.53919,2025-02-28,0,0,0,0,0,0
University of Alabama at Birmingham,Birmingham,AL,33.50591,-86.79977,2025-02-28,12048.100000000093,29667.932252559953,0.11084252000000086,12048.100000000093,29667.932252559953,0.11084252000000086
University of Alaska Anchorage,Anchorage,AK,61.19065,-149.81813,2025-02-28,0,0,0,0,0,0
University of Alaska Fairbanks,Fairbanks,AK,64.85744,-147.8003,2025-02-28,0,0,0,0,0,0
University of Arizona,Tucson,AZ,32.23284,-110.95947,2025-02-28,602701.49,1770312.3090808361,6.147555198,602701.49,1770312.3090808361,6.147555198
University of Arkansas at Fayetteville,Fayetteville,AR,36.06992,-94.17696,2025-02-28,0,0,0,0,0,0
University of Arkansas for Medical Sciences,Little Rock,AR,34.749,-92.3201,2025-02-28,0,0,0,0,0,0
University of California Berkeley,Berkeley,CA,37.87002,-122.26862,2025-02-28,0,0,0,0,0,0
University of California Los Angeles,Los Angeles,CA,34.0702,-118.45102,2025-02-28,0,0,0,0,0,0
University of California Riverside,Riverside,CA,33.97259,-117.35036,2025-02-28,0,0,0,0,0,0
University of California Santa Barbara,Santa Barbara,CA,34.43131,-119.83428,2025-02-28,67718.27000000002,181707.69948759518,0.5959207760000002,67718.27000000002,181707.69948759518,0.5959207760000002
University of California Santa Cruz,Santa Cruz,CA,36.97756,-122.05584,2025-02-28,0,0,0,0,0,0
University of California at Davis,Davis,CA,38.54337,-121.72946,2025-02-28,0,0,0,0,0,0
"University of California, Merced",Merced,CA,37.35131,-120.4324,2025-02-28,0,0,0,0,0,0
"University of California, San Diego",La Jolla,CA,32.87699,-117.24087,2025-02-28,1502565.33,4031817.254695361,13.222574904000002,1502565.33,4031817.254695361,13.222574904000002
"University of California, San Francisco",San Francisco,CA,37.76744,-122.41394,2025-02-28,0,0,0,0,0,0
University of California-Irvine,Irvine,CA,33.64852,-117.82136,2025-02-28,728030.49,1953516.3183395946,6.406668312,728030.49,1953516.3183395946,6.406668312
University of Central Florida,Orlando,FL,28.60103,-81.19727,2025-02-28,56561.640000000014,181682.10508671773,0.6334903680000001,56561.640000000014,181682.10508671773,0.6334903680000001
University of Chicago,Chicago,IL,41.78955,-87.60117,2025-02-28,0,0,0,0,0,0
University of Cincinnati,Cincinnati,OH,39.12972,-84.52055,2025-02-28,0,0,0,0,0,0
University of Colorado Denver,Aurora,CO,39.7451,-104.8376,2025-02-28,0,0,0,0,0,0
University of Colorado-Boulder,Boulder,CO,38.89128,-104.80006,2025-02-28,0,0,0,0,0,0
University of Colorado-Boulder,Boulder,CO,40.0133,-105.25193,2025-02-28,0,0,0,0,0,0
University of Colorado-Colorado Springs,Colorado Springs,CO,38.89128,-104.80006,2025-02-28,0,0,0,0,0,0
University of Colorado-Colorado Springs,Colorado Springs,CO,40.0133,-105.25193,2025-02-28,0,0,0,0,0,0
University of Connecticut School of Medicine,Farmington,CT,41.73418,-72.79379,2025-02-28,0,0,0,0,0,0
University of Connecticut Storrs,Storrs-Mansfield,CT,41.81142,-72.24755,2025-02-28,0,0,0,0,0,0
University of Delaware,Newark,DE,39.71451,-75.73872,2025-02-28,0,0,0,0,0,0
University of Denver (Colorado Seminary),Denver,CO,39.67664,-104.95948,2025-02-28,0,0,0,0,0,0
University of Detroit Mercy,Detroit,MI,42.41708,-83.13885,2025-02-28,0,0,0,0,0,0
University of Florida,Gainesville,FL,29.64344,-82.34964,2025-02-28,0,0,0,0,0,0
University of Georgia,Athens,GA,33.93117,-83.37887,2025-02-28,0,0,0,0,0,0
University of Hartford,West Hartford,CT,41.79337,-72.71626,2025-02-28,0,0,0,0,0,0
University of Hawaii at Manoa,Honolulu,HI,21.2992,-157.82037,2025-02-28,0,0,0,0,0,0
University of Houston,Houston,TX,29.71809,-95.33648,2025-02-28,0,0,0,0,0,0
University of Idaho,Moscow,ID,46.73029,-116.99685,2025-02-28,0,0,0,0,0,0
University of Illinois at Chicago,Chicago,IL,41.87151,-87.66772,2025-02-28,0,0,0,0,0,0
University of Illinois at Urbana-Champaign,Champaign,IL,40.11686,-88.22876,2025-02-28,33786.830000000016,96652.18035674475,0.3344896170000002,33786.830000000016,96652.18035674475,0.3344896170000002
University of Iowa,Iowa City,IA,41.66441,-91.54215,2025-02-28,0,0,0,0,0,0
University of Kansas Lawrence,Lawrence,KS,38.95154,-95.26556,2025-02-28,0,0,0,0,0,0
University of Kansas Medical Center,Kansas City,KS,39.02658,-94.63635,2025-02-28,0,0,0,0,0,0
University of Kentucky,Lexington,KY,38.04096,-84.50589,2025-02-28,0,0,0,0,0,0
University of Louisville,Louisville,KY,38.21502,-85.76014,2025-02-28,0,0,0,0,0,0
University of Maryland Baltimore,Baltimore,MD,39.25246,-76.71121,2025-02-28,0,0,0,0,0,0
University of Maryland Baltimore,Baltimore,MD,39.29225,-76.62563,2025-02-28,0,0,0,0,0,0
"University of Maryland, College Park",College Park,MD,38.99233,-76.95299,2025-02-28,0,0,0,0,0,0
University of Massachusetts Amherst,Hadley,MA,42.38691,-72.52113,2025-02-28,0,0,0,0,0,0
University of Massachusetts Boston,Boston,MA,42.3137,-71.06298,2025-02-28,0,0,0,0,0,0
University of Massachusetts Medical School Worcester,Worcester,MA,42.2802,-71.75824,2025-02-28,0,0,0,0,0,0
University of Memphis,Memphis,TN,35.12012,-89.9397,2025-02-28,0,0,0,0,0,0
University of Miami,Coral Gables,FL,25.71347,-80.27725,2025-02-28,0,0,0,0,0,0
University of Michigan at Ann Arbor,Ann Arbor,MI,42.27549,-83.74304,2025-02-28,1153569.23,2938882.3761096676,11.189621531,1153569.23,2938882.3761096676,11.189621531
University of Minnesota,Minneapolis,MN,44.97514,-93.227,2025-02-28,0,0,0,0,0,0
University of Mississippi,University,MS,34.36739,-89.52896,2025-02-28,0,0,0,0,0,0
University of Mississippi Medical Center,Jackson,MS,32.32872,-90.17554,2025-02-28,0,0,0,0,0,0
University of Missouri Kansas City,Kansas City,MO,39.03452,-94.57577,2025-02-28,0,0,0,0,0,0
University of Missouri-Columbia,Columbia,MO,38.94823,-92.32734,2025-02-28,0,0,0,0,0,0
University of Montana,Missoula,MT,46.8602,-113.98372,2025-02-28,0,0,0,0,0,0
University of Nebraska Lincoln,Lincoln,NE,40.82302,-96.67344,2025-02-28,0,0,0,0,0,0
University of Nebraska Medical Center,Omaha,NE,41.266,-96.01003,2025-02-28,0,0,0,0,0,0
University of Nevada Las Vegas,Las Vegas,NV,36.10952,-115.14195,2025-02-28,342082.66,1811650.1731264917,2.9761191419999995,342082.66,1811650.1731264917,2.9761191419999995
University of Nevada Reno,Reno,NV,39.54508,-119.81828,2025-02-28,0,0,0,0,0,0
University of New Mexico,Albuquerque,NM,35.09023,-106.62529,2025-02-28,0,0,0,0,0,0
University of New Mexico,Albuquerque,NM,35.09097,-106.61754,2025-02-28,0,0,0,0,0,0
University of North Carolina Chapel Hill,Chapel Hill,NC,35.9316,-79.05738,2025-02-28,0,0,0,0,0,0
University of North Carolina Charlotte,Charlotte,NC,35.30165,-80.73145,2025-02-28,0,0,0,0,0,0
University of North Carolina Greensboro,Greensboro,NC,36.06505,-79.80897,2025-02-28,0,0,0,0,0,0
University of North Carolina at Pembroke,Pembroke,NC,34.69413,-79.19811,2025-02-28,0,0,0,0,0,0
University of North Dakota,Grand Forks,ND,47.91987,-97.07282,2025-02-28,0,0,0,0,0,0
University of North Florida,Jacksonville,FL,30.27067,-81.51043,2025-02-28,0,0,0,0,0,0
University of North Texas,Denton,TX,33.21077,-97.14777,2025-02-28,0,0,0,0,0,0
University of North Texas Health Science Center,Fort Worth,TX,32.74954,-97.36903,2025-02-28,0,0,0,0,0,0
University of Notre Dame,Notre Dame,IN,41.6939,-86.23928,2025-02-28,0,0,0,0,0,0
University of Oklahoma,Norman,OK,35.20922,-97.44378,2025-02-28,0,0,0,0,0,0
University of Oklahoma Health Sciences Center,Oklahoma City,OK,35.47459,-97.50503,2025-02-28,0,0,0,0,0,0
University of Oregon,Eugene,OR,44.04551,-123.06974,2025-02-28,0,0,0,0,0,0
University of Pennsylvania,Philadelphia,PA,39.95346,-75.19398,2025-02-28,0,0,0,0,0,0
University of Pittsburgh at Pittsburgh,Pittsburgh,PA,40.44091,-79.95912,2025-02-28,0,0,0,0,0,0
University of Rhode Island,Kingston,RI,41.48604,-71.52866,2025-02-28,0,0,0,0,0,0
University of Rochester,Rochester,NY,43.13177,-77.63546,2025-02-28,0,0,0,0,0,0
University of San Francisco,San Francisco,CA,37.77529,-122.45173,2025-02-28,0,0,0,0,0,0
University of South Carolina at Columbia,Columbia,SC,33.99962,-81.02825,2025-02-28,0,0,0,0,0,0
University of South Dakota,Vermillion,SD,42.78263,-96.92543,2025-02-28,0,0,0,0,0,0
University of South Florida,Tampa,FL,28.07404,-82.39596,2025-02-28,0,0,0,0,0,0
University of Southern California,Los Angeles,CA,34.01728,-118.28125,2025-02-28,0,0,0,0,0,0
University of Tennessee Chattanooga,Chattanooga,TN,35.04582,-85.29982,2025-02-28,0,0,0,0,0,0
University of Tennessee Knoxville,Knoxville,TN,35.95494,-83.93035,2025-02-28,0,0,0,0,0,0
University of Texas Arlington,Arlington,TX,32.7282,-97.1126,2025-02-28,0,0,0,0,0,0
University of Texas Dallas,Richardson,TX,32.99173,-96.7437,2025-02-28,0,0,0,0,0,0
University of Texas El Paso,El Paso,TX,31.77052,-106.50415,2025-02-28,0,0,0,0,0,0
University of Texas Health Science Center,San Antonio,TX,29.51309,-98.57774,2025-02-28,0,0,0,0,0,0
University of Texas Health Science Center Houston,Houston,TX,29.70303,-95.4033,2025-02-28,0,0,0,0,0,0
University of Texas Medical Branch Galveston,Galveston,TX,29.31103,-94.77801,2025-02-28,0,0,0,0,0,0
University of Texas San Antonio,San Antonio,TX,29.56712,-98.60572,2025-02-28,0,0,0,0,0,0
University of Texas Southwestern Medical Center,Dallas,TX,32.81196,-96.83753,2025-02-28,0,0,0,0,0,0
University of Texas at Austin,Austin,TX,30.29119,-97.73757,2025-02-28,0,0,0,0,0,0
University of Toledo Health Science Campus,Toledo,OH,41.61955,-83.62073,2025-02-28,0,0,0,0,0,0
University of Tx Md Anderson Cancer Center,Houston,TX,29.70632,-95.3972,2025-02-28,0,0,0,0,0,0
University of Utah,Salt Lake City,UT,40.76454,-111.85032,2025-02-28,0,0,0,0,0,0
University of Vermont and State Agricultural College,Burlington,VT,44.47828,-73.20108,2025-02-28,0,0,0,0,0,0
University of Virginia,Charlottesville,VA,38.05053,-78.50053,2025-02-28,0,0,0,0,0,0
University of Washington,Seattle,WA,47.66031,-122.31517,2025-02-28,0,0,0,0,0,0
University of West Florida,Pensacola,FL,30.54909,-87.21527,2025-02-28,0,0,0,0,0,0
University of Wisconsin Milwaukee,Milwaukee,WI,43.0757,-87.878,2025-02-28,0,0,0,0,0,0
University of Wisconsin-Madison,Madison,WI,43.06852,-89.40086,2025-02-28,0,0,0,0,0,0
University of the District of Columbia,Washington,DC,38.94444,-77.06433,2025-02-28,0,0,0,0,0,0
University of the Pacific-Stockton,Stockton,CA,37.98434,-121.30996,2025-02-28,0,0,0,0,0,0
Urban Health Partnerships,Miami,FL,25.75816,-80.19932,2025-02-28,329995.70999999996,1059981.911104169,3.6959519519999993,329995.70999999996,1059981.911104169,3.6959519519999993
"Us Helping Us, People Into Living, Inc.",Washington,DC,38.9351,-77.0244,2025-02-28,0,0,0,0,0,0
Van Andel Research Institute,Grand Rapids,MI,42.96939,-85.6664,2025-02-28,105648.17999999993,269153.8281322411,1.0247873459999994,105648.17999999993,269153.8281322411,1.0247873459999994
Vanderbilt University,Nashville,TN,36.14338,-86.80336,2025-02-28,992753.8500000001,2672493.844777926,9.927538500000002,992753.8500000001,2672493.844777926,9.927538500000002
Vanderbilt University,Nashville,TN,36.14378,-86.801,2025-02-28,0,0,0,0,0,0
Virginia Commonwealth University,Richmond,VA,37.54981,-77.45278,2025-02-28,0,0,0,0,0,0
Virginia Polytechnic Institute and St Univ,Blacksburg,VA,37.23306,-80.421,2025-02-28,0,0,0,0,0,0
WETA TV 26,Arlington,VA,38.84087,-77.08649,2025-02-28,0,0,0,0,0,0
Wadsworth Center,Menands,NY,42.64589,-73.79766,2025-02-28,0,0,0,0,0,0
Wake Forest University Health Sciences,Winston-Salem,NC,36.0594,-80.32198,2025-02-28,0,0,0,0,0,0
Washington State University,Pullman,WA,46.72889,-117.15574,2025-02-28,0,0,0,0,0,0
Washington University,Saint Louis,MO,38.66437,-90.3238,2025-02-28,0,0,0,0,0,0
Wayne State University,Detroit,MI,42.35747,-83.06529,2025-02-28,0,0,0,0,0,0
Weill Medical College of Cornell University,New York,NY,40.7607,-73.9603,2025-02-28,0,0,0,0,0,0
"Westat, Inc.",Bethesda,MD,39.09463,-77.18145,2025-02-28,0,0,0,0,0,0
Western Kentucky University,Bowling Green,KY,36.9868,-86.45538,2025-02-28,0,0,0,0,0,0
"Whitman-Walker Institute, Inc.",Washington,DC,38.9127,-77.03142,2025-02-28,0,0,0,0,0,0
Winifred Masterson Burke Medical Research Institute,White Plains,NY,41.01658,-73.75221,2025-02-28,0,0,0,0,0,0
Wistar Institute,Philadelphia,PA,39.95129,-75.19577,2025-02-28,0,0,0,0,0,0
Worcester Polytechnic Institute,Worcester,MA,42.27404,-71.80669,2025-02-28,0,0,0,0,0,0
Xavier University of Louisiana,New Orleans,LA,29.96429,-90.10747,2025-02-28,0,0,0,0,0,0
Yale University,New Haven,CT,41.31092,-72.92643,2025-02-28,0,0,0,0,0,0
Academic Pediatric Association,Mc Lean,VA,38.93747,-77.17694,2025-03-07,0,0,0,0,0,0
Access Health Inc.,Muskegon,MI,43.23096,-86.24311,2025-03-07,0,0,0,0,0,0
"Accurius Therapeutics, Inc.",Lexington,MA,42.45835,-71.20621,2025-03-07,0,0,0,0,0,0
Alabama State University,Montgomery,AL,32.36501,-86.2957,2025-03-07,0,0,0,0,0,0
Albert Einstein College of Medicine,Bronx,NY,40.85103,-73.84438,2025-03-07,0,0,0,0,0,0
Allen Institute,Seattle,WA,47.65008,-122.3516,2025-03-07,0,0,0,0,0,0
American Gastroenterological Association Institute,Bethesda,MD,38.98933,-77.0992,2025-03-07,0,0,0,0,0,0
American Psychological Association,Washington,DC,38.89984,-77.00754,2025-03-07,0,0,0,0,0,0
American Society for Bone & Mineral Research,Washington,DC,38.90596,-77.04579,2025-03-07,0,0,0,0,0,0
"American Society of Nephrology, Inc.",Washington,DC,38.89999,-77.03432,2025-03-07,0,0,0,0,0,0
American University,Washington,DC,38.93695,-77.08947,2025-03-07,0,0,0,0,0,0
Arizona State University-Tempe Campus,Scottsdale,AZ,33.42395,-111.94069,2025-03-07,71.65999999997439,210.486587761194,7.309319999997388e-4,71.65999999997439,210.486587761194,7.309319999997388e-4
Arkansas Cancer Coalition,Little Rock,AR,34.75984,-92.34041,2025-03-07,0,0,0,0,0,0
Asian American Health Coalition,Houston,TX,29.71509,-95.55379,2025-03-07,0,0,0,0,0,0
Asian Community Health Coalition,Philadelphia,PA,39.9607,-75.15706,2025-03-07,0,0,0,0,0,0
Auburn University at Auburn,Auburn,AL,32.60214,-85.5085,2025-03-07,0,0,0,0,0,0
Augusta University,Augusta,GA,33.47096,-81.9914,2025-03-07,0,0,0,0,0,0
Banner Health,Phoenix,AZ,33.43342,-112.08759,2025-03-07,0,0,0,0,0,0
Baylor College of Medicine,Houston,TX,29.70926,-95.40085,2025-03-07,0,0,0,0,0,0
Baylor University,Waco,TX,31.55571,-97.1214,2025-03-07,0,0,0,0,0,0
Beckman Research Institute,Duarte,CA,34.12772,-117.97244,2025-03-07,0,0,0,0,0,0
"Bellage, Inc.",Sunnyside,NY,40.74767,-73.9181,2025-03-07,0,0,0,0,0,0
Bentley University,Waltham,MA,42.38883,-71.22023,2025-03-07,0,0,0,0,0,0
Beth Israel Deaconess Medical Center,Boston,MA,42.33982,-71.10568,2025-03-07,44924.22,100629.67323462148,0.354901338,44924.22,100629.67323462148,0.354901338
Boston Children's Hospital,Boston,MA,42.33748,-71.10496,2025-03-07,2060110.17,4614620.203409664,16.274870343,2060110.17,4614620.203409664,16.274870343
Boston College,Chestnut Hill,MA,42.33696,-71.1705,2025-03-07,0,0,0,0,0,0
Boston Medical Center,Boston,MA,42.33685,-71.07088,2025-03-07,0,0,0,0,0,0
Boston University,Boston,MA,42.33639,-71.07097,2025-03-07,0,0,0,0,0,0
Boston University,Boston,MA,42.34959,-71.09973,2025-03-07,0,0,0,0,0,0
Brandeis University,Waltham,MA,42.36638,-71.25452,2025-03-07,0,0,0,0,0,0
Brigham and Women's Hospital,Boston,MA,42.33611,-71.10748,2025-03-07,639871.73,1433304.4202430658,5.0549866670000005,639871.73,1433304.4202430658,5.0549866670000005
"Broad Institute, Inc.",Cambridge,MA,42.36308,-71.08789,2025-03-07,0,0,0,0,0,0
"Bronxworks, Inc.",Bronx,NY,40.851,-73.9081,2025-03-07,0,0,0,0,0,0
Brooklyn College,New York,NY,40.63164,-73.95287,2025-03-07,0,0,0,0,0,0
Brown University,Providence,RI,41.82614,-71.40451,2025-03-07,824279.6699999999,1715374.4000992551,6.0996695579999995,824279.6699999999,1715374.4000992551,6.0996695579999995
Butler Hospital,Providence,RI,41.84359,-71.37966,2025-03-07,16536.440000000002,34413.30276261373,0.12236965600000002,16536.440000000002,34413.30276261373,0.12236965600000002
California Institute of Technology,Pasadena,CA,34.13433,-118.12652,2025-03-07,0,0,0,0,0,0
"California Polytechnic State University, San Luis Obispo",San Luis Obispo,CA,35.29932,-120.65662,2025-03-07,0,0,0,0,0,0
California State University - Dominguez Hills,Carson,CA,33.86714,-118.25534,2025-03-07,0,0,0,0,0,0
California State University Bakersfield,Bakersfield,CA,35.35426,-119.10759,2025-03-07,0,0,0,0,0,0
California State University Fullerton,Fullerton,CA,33.8781,-117.88425,2025-03-07,0,0,0,0,0,0
California State University Long Beach,Long Beach,CA,33.7811,-118.1099,2025-03-07,0,0,0,0,0,0
California State University Los Angeles,Los Angeles,CA,34.06254,-118.16904,2025-03-07,0,0,0,0,0,0
California State University Northridge,Northridge,CA,34.24588,-118.50188,2025-03-07,0,0,0,0,0,0
California State University Sacramento,Sacramento,CA,38.55385,-121.42126,2025-03-07,0,0,0,0,0,0
California State University San Bernardino,San Bernardino,CA,34.17678,-117.33018,2025-03-07,0,0,0,0,0,0
California State University San Marcos,San Marcos,CA,33.13799,-117.15109,2025-03-07,0,0,0,0,0,0
Cambridge Health Alliance,Cambridge,MA,42.37442,-71.10444,2025-03-07,0,0,0,0,0,0
Campesinos Sin Fronteras,Somerton,AZ,32.59632,-114.7127,2025-03-07,0,0,0,0,0,0
Carnegie-Mellon University,Pittsburgh,PA,40.44296,-79.94108,2025-03-07,0,0,0,0,0,0
Case Western Reserve University,Cleveland,OH,41.50274,-81.60733,2025-03-07,0,0,0,0,0,0
Cedars-Sinai Medical Center,Los Angeles,CA,34.07654,-118.38,2025-03-07,0,0,0,0,0,0
Center for Innovative Public Health Research,San Clemente,CA,33.43004,-117.61655,2025-03-07,725382,1946409.6538454206,6.383361600000001,725382,1946409.6538454206,6.383361600000001
Central Michigan University,Mount Pleasant,MI,43.6014,-84.78711,2025-03-07,0,0,0,0,0,0
Charles R. Drew University of Medicine & Science,Los Angeles,CA,33.92395,-118.24569,2025-03-07,0,0,0,0,0,0
Cherokee Nation,Tahlequah,OK,35.85318,-94.99067,2025-03-07,0,0,0,0,0,0
Children's Hospital of Los Angeles,Los Angeles,CA,34.09806,-118.29069,2025-03-07,0,0,0,0,0,0
Children's Hospital of Philadelphia,Philadelphia,PA,39.94663,-75.1966,2025-03-07,9857.589999999997,23703.58420648915,0.08378951499999997,9857.589999999997,23703.58420648915,0.08378951499999997
Children's Research Institute,Washington,DC,38.92727,-77.0144,2025-03-07,206571.93,407127.20184466016,0.33051508799999996,206571.93,407127.20184466016,0.33051508799999996
Cincinnati Children's Hospital Medical Center,Cincinnati,OH,39.14066,-84.50101,2025-03-07,0,0,0,0,0,0
City College of New York,New York,NY,40.81941,-73.95017,2025-03-07,0,0,0,0,0,0
Claflin University,Orangeburg,SC,33.49592,-80.85546,2025-03-07,0,0,0,0,0,0
Claremont Graduate University,Claremont,CA,34.10328,-117.71447,2025-03-07,0,0,0,0,0,0
Clark Atlanta University,Atlanta,GA,33.74773,-84.41301,2025-03-07,0,0,0,0,0,0
Clarkson University,Potsdam,NY,44.65482,-74.95554,2025-03-07,0,0,0,0,0,0
Clemson University,Clemson,SC,34.67315,-82.82396,2025-03-07,0,0,0,0,0,0
Cleveland Clinic Lerner College of Medicine - Case Western Reserve University,Cleveland,OH,41.50266,-81.62213,2025-03-07,0,0,0,0,0,0
Cold Spring Harbor Laboratory,Cold Spring Harbor,NY,40.86755,-73.47346,2025-03-07,0,0,0,0,0,0
Colliga Apps Corp.,Austin,TX,25.76305,-80.19045,2025-03-07,0,0,0,0,0,0
Colorado School of Mines,Golden,CO,39.75113,-105.22231,2025-03-07,0,0,0,0,0,0
Colorado State University,Fort Collins,CO,40.57951,-105.08127,2025-03-07,0,0,0,0,0,0
Columbia University,New York,NY,40.8101,-73.9606,2025-03-07,0,0,0,0,0,0
Columbia University,New York,NY,40.81207,-73.95438,2025-03-07,7929274.239999998,18691532.337615263,56.297847103999985,7929274.239999998,18691532.337615263,56.297847103999985
Columbia University,New York,NY,40.8415,-73.9414,2025-03-07,246312720.82999995,580628446.8425632,1748.8203178929996,246312720.82999995,580628446.8425632,1748.8203178929996
Cornell University,Ithaca,NY,42.438,-76.4625,2025-03-07,0,0,0,0,0,0
Creighton University,Omaha,NE,41.2643,-95.94809,2025-03-07,0,0,0,0,0,0
Dana-Farber Cancer Institute,Boston,MA,42.33759,-71.10828,2025-03-07,0,0,0,0,0,0
Dartmouth College,Hanover,NH,43.71139,-72.27061,2025-03-07,0,0,0,0,0,0
Dartmouth-Hitchcock Clinic,Lebanon,NH,43.63701,-72.25238,2025-03-07,0,0,0,0,0,0
Delaware State University,Dover,DE,39.18938,-75.54117,2025-03-07,0,0,0,0,0,0
"Delta Health Alliance, Inc.",Stoneville,MS,33.40757,-90.91122,2025-03-07,0,0,0,0,0,0
Denver Health and Hospital Authority,Denver,CO,39.7273,-104.99157,2025-03-07,16997,47606.26522864538,0.1631712,16997,47606.26522864538,0.1631712
Dillard University,New Orleans,LA,29.99621,-90.06596,2025-03-07,0,0,0,0,0,0
Drexel University,Philadelphia,PA,39.95407,-75.18654,2025-03-07,1480022.48,3558865.5525515787,12.58019108,1480022.48,3558865.5525515787,12.58019108
Duke University,Durham,NC,36.00777,-78.92648,2025-03-07,8597.419999999998,21508.103185851032,0.08339497399999998,8597.419999999998,21508.103185851032,0.08339497399999998
Duquesne University,Pittsburgh,PA,40.43782,-79.99365,2025-03-07,92040.94999999995,221321.88585346492,0.7823480749999996,92040.94999999995,221321.88585346492,0.7823480749999996
East Carolina University,Greenville,NC,35.60836,-77.3648,2025-03-07,0,0,0,0,0,0
East Tennessee State University,Johnson City,TN,36.33089,-82.36558,2025-03-07,0,0,0,0,0,0
Eastern Michigan University,Ypsilanti,MI,42.23313,-83.62377,2025-03-07,0,0,0,0,0,0
"Ecohealth Alliance, Inc.",New York,NY,40.75406,-73.99895,2025-03-07,5716314.399999999,13474962.805621892,40.585832239999995,5716314.399999999,13474962.805621892,40.585832239999995
Emma Pendleton Bradley Hospital,Riverside,RI,41.79238,-71.3674,2025-03-07,0,0,0,0,0,0
Emory University,Atlanta,GA,33.79125,-84.3249,2025-03-07,221651.87999999995,651014.5630940906,2.6154921839999994,221651.87999999995,651014.5630940906,2.6154921839999994
Endeavor Health Clinical Operations,Evanston,IL,42.0647,-87.68987,2025-03-07,0,0,0,0,0,0
Endocrine Society,Washington,DC,38.90411,-77.04616,2025-03-07,0,0,0,0,0,0
"Equiti Foods, LLC",Chapel Hill,NC,35.90131,-79.06105,2025-03-07,0,0,0,0,0,0
"Families Against Narcotics, Inc.",Clinton Twp,MI,42.55372,-82.92816,2025-03-07,0,0,0,0,0,0
Family Health International,Durham,NC,35.99283,-78.90391,2025-03-07,0,0,0,0,0,0
Father Flanagan's Boys' Home,Boys Town,NE,41.25345,-96.13386,2025-03-07,0,0,0,0,0,0
Fayetteville State University,Fayetteville,NC,35.07155,-78.89445,2025-03-07,0,0,0,0,0,0
Fenway Community Health Center,Boston,MA,42.34412,-71.09841,2025-03-07,0,0,0,0,0,0
Feonix - Mobility Rising,Lincoln,NE,40.85914,-96.72561,2025-03-07,0,0,0,0,0,0
Florida A&M University,Tallahassee,FL,30.42891,-84.28977,2025-03-07,0,0,0,0,0,0
Florida International University,Miami,FL,25.76105,-80.3762,2025-03-07,0,0,0,0,0,0
Florida State University,Tallahassee,FL,30.44146,-84.29789,2025-03-07,0,0,0,0,0,0
Fordham University,Bronx,NY,40.86209,-73.88639,2025-03-07,0,0,0,0,0,0
Fort Lewis College,Durango,CO,37.27498,-107.87204,2025-03-07,0,0,0,0,0,0
Fred Hutchinson Cancer Center,Seattle,WA,47.62648,-122.32961,2025-03-07,0,0,0,0,0,0
"Friends Research Institute, Inc.",Baltimore,MD,39.30368,-76.61989,2025-03-07,0,0,0,0,0,0
"Function Promoting Therapies, LLC",Boston,MA,42.33724,-71.10217,2025-03-07,0,0,0,0,0,0
"Genendeavor, LLC",Hayward,CA,37.52099,-121.94829,2025-03-07,0,0,0,0,0,0
Genetobe Inc.,Ann Arbor,MI,42.32232,-83.65208,2025-03-07,0,0,0,0,0,0
George Washington University,Washington,DC,38.89808,-77.04393,2025-03-07,0,0,0,0,0,0
Georgetown University,Washington,DC,38.90521,-77.07547,2025-03-07,0,0,0,0,0,0
Georgia Institute of Technology,Atlanta,GA,33.7819,-84.40401,2025-03-07,0,0,0,0,0,0
Georgia State University,Atlanta,GA,33.75353,-84.38448,2025-03-07,41537.03000000003,121998.56566827296,0.49013695400000035,41537.03000000003,121998.56566827296,0.49013695400000035
Gerontological Society of America,Washington,DC,38.90339,-77.02915,2025-03-07,0,0,0,0,0,0
Gladstone Institutes,San Francisco,CA,37.76762,-122.39432,2025-03-07,0,0,0,0,0,0
Gordon Research Conferences,East Greenwich,RI,41.48,-71.56965,2025-03-07,0,0,0,0,0,0
Hackensack University Medical Center,Hackensack,NJ,40.88342,-74.05565,2025-03-07,0,0,0,0,0,0
Hampton University,Hampton,VA,37.02566,-76.34773,2025-03-07,0,0,0,0,0,0
Hartford Hospital,Hartford,CT,41.75412,-72.67985,2025-03-07,0,0,0,0,0,0
"Harvard Pilgrim Health Care, Inc.",Canton,MA,42.31681,-71.2346,2025-03-07,353856.57,792634.1517120155,2.7954669030000003,353856.57,792634.1517120155,2.7954669030000003
Harvard University,Boston,MA,42.33531,-71.10277,2025-03-07,1821722.7,4080635.3460358884,14.391609330000001,1821722.7,4080635.3460358884,14.391609330000001
Harvard University,Boston,MA,42.33567,-71.10424,2025-03-07,0,0,0,0,0,0
Harvard University,Cambridge,MA,42.3697,-71.11193,2025-03-07,0,0,0,0,0,0
"Health Choice Network, Inc.",Miami,FL,25.78484,-80.34186,2025-03-07,0,0,0,0,0,0
Healthpartners Institute,Bloomington,MN,44.85364,-93.22558,2025-03-07,335296.56000000006,828668.1051144828,3.051198696,335296.56000000006,828668.1051144828,3.051198696
Healthy Tarrant County Collaboration,Fort Worth,TX,32.76545,-97.25287,2025-03-07,0,0,0,0,0,0
Hebrew Rehabilitation Center for Aged,Boston,MA,42.29668,-71.13073,2025-03-07,0,0,0,0,0,0
Hennepin Healthcare Research Institute,Minneapolis,MN,44.9721,-93.2624,2025-03-07,0,0,0,0,0,0
Herbert H. Lehman College,New York,NY,40.87086,-73.8866,2025-03-07,0,0,0,0,0,0
Hopa Mountain,Bozeman,MT,45.67802,-111.03301,2025-03-07,0,0,0,0,0,0
Hospital for Special Surgery,New York,NY,40.76532,-73.95395,2025-03-07,0,0,0,0,0,0
Housing Authority of the City of Los Angeles,Los Angeles,CA,34.06041,-118.28167,2025-03-07,0,0,0,0,0,0
Howard University,Washington,DC,38.92314,-77.02158,2025-03-07,0,0,0,0,0,0
Hugo W. Moser Research Institute Kennedy Krieger,Baltimore,MD,39.2987,-76.59368,2025-03-07,0,0,0,0,0,0
Hunter College,New York,NY,40.76874,-73.96518,2025-03-07,100684.75,237342.30946837686,0.714861725,100684.75,237342.30946837686,0.714861725
Ibis Reproductive Health,Cambridge,MA,42.37281,-71.1191,2025-03-07,0,0,0,0,0,0
Icahn School of Medicine at Mount Sinai,New York,NY,40.79028,-73.94678,2025-03-07,0,0,0,0,0,0
Illinois Institute of Technology,Chicago,IL,41.83106,-87.62905,2025-03-07,0,0,0,0,0,0
Indiana University,Bloomington,IN,39.17206,-86.52316,2025-03-07,0,0,0,0,0,0
Indiana University Indianapolis,Indianapolis,IN,39.77921,-86.17529,2025-03-07,0,0,0,0,0,0
"Innovation Research and Training, Inc.",Durham,NC,35.96456,-78.94053,2025-03-07,0,0,0,0,0,0
Institute for Systems Biology,Seattle,WA,47.62254,-122.33753,2025-03-07,0,0,0,0,0,0
"Iris Media, Inc.",Eugene,OR,44.04872,-123.08848,2025-03-07,0,0,0,0,0,0
"Isa Associates, Inc.",Arlington,VA,38.80541,-77.03984,2025-03-07,0,0,0,0,0,0
Jackson Laboratory,Bar Harbor,ME,44.36536,-68.1963,2025-03-07,0,0,0,0,0,0
Johns Hopkins University,Baltimore,MD,39.32526,-76.60513,2025-03-07,3172505.29,6947501.522850054,26.649044436000004,3172505.29,6947501.522850054,26.649044436000004
Kaiser Foundation Research Institute,Oakland,CA,37.80577,-122.26521,2025-03-07,0,0,0,0,0,0
Kean University,Union,NJ,40.67958,-74.23188,2025-03-07,0,0,0,0,0,0
Keck Graduate Institute of Applied Life Sciences,Claremont,CA,34.09248,-117.72201,2025-03-07,0,0,0,0,0,0
Kennesaw State University,Kennesaw,GA,34.03432,-84.57428,2025-03-07,0,0,0,0,0,0
Kent State University,Kent,OH,41.15242,-81.33788,2025-03-07,0,0,0,0,0,0
LSU Health Scienes Center,New Orleans,LA,29.95738,-90.08279,2025-03-07,0,0,0,0,0,0
LSU Pennington Biomedical Research Center,Baton Rouge,LA,30.40335,-91.12269,2025-03-07,0,0,0,0,0,0
La Jolla Institute for Immunology,La Jolla,CA,32.83878,-117.25324,2025-03-07,0,0,0,0,0,0
Laureate Institute for Brain Research,Tulsa,OK,36.06624,-95.91946,2025-03-07,0,0,0,0,0,0
Loma Linda University,Loma Linda,CA,34.05174,-117.26178,2025-03-07,0,0,0,0,0,0
Louisiana State University A&M College Baton Rouge,Baton Rouge,LA,30.40802,-91.18867,2025-03-07,0,0,0,0,0,0
Loyola Marymount University,Los Angeles,CA,33.96968,-118.41614,2025-03-07,0,0,0,0,0,0
Loyola University Medical Center,Maywood,IL,41.86516,-87.83338,2025-03-07,0,0,0,0,0,0
Loyola University of Chicago,Chicago,IL,41.89738,-87.62424,2025-03-07,0,0,0,0,0,0
Lurie Children's Hospital of Chicago,Chicago,IL,41.89666,-87.62292,2025-03-07,0,0,0,0,0,0
MGH Institute of Health Professions,Charlestown,MA,42.37496,-71.05421,2025-03-07,0,0,0,0,0,0
Magee-Women's Research Institute and Foundation,Pittsburgh,PA,40.43708,-79.96154,2025-03-07,0,0,0,0,0,0
Mainehealth,Portland,ME,43.65316,-70.27547,2025-03-07,5014585.419999998,11688194.112784699,46.63564440599998,5014585.419999998,11688194.112784699,46.63564440599998
Marquette University,Milwaukee,WI,43.03873,-87.92331,2025-03-07,0,0,0,0,0,0
Massachusetts General Hospital,Boston,MA,42.3632,-71.06877,2025-03-07,0,0,0,0,0,0
Mayo Clinic Arizona,Scottsdale,AZ,33.58911,-111.79394,2025-03-07,0,0,0,0,0,0
Mayo Clinic Jacksonville,Jacksonville,FL,30.2647,-81.44479,2025-03-07,0,0,0,0,0,0
Mayo Clinic Rochester,Rochester,MN,44.02432,-92.46011,2025-03-07,0,0,0,0,0,0
McLean Hospital,Belmont,MA,42.39362,-71.19114,2025-03-07,0,0,0,0,0,0
Medgar Evers College,New York,NY,40.66714,-73.95183,2025-03-07,0,0,0,0,0,0
Medical College of Wisconsin,Milwaukee,WI,43.04575,-88.02037,2025-03-07,0,0,0,0,0,0
Medical University of South Carolina,Charleston,SC,32.78675,-79.94726,2025-03-07,0,0,0,0,0,0
Meharry Medical College,Nashville,TN,36.1669,-86.80615,2025-03-07,0,0,0,0,0,0
Michigan State University,East Lansing,MI,42.65398,-84.49203,2025-03-07,0,0,0,0,0,0
"Migrant Clinicians Network, Inc.",Austin,TX,30.26688,-97.78802,2025-03-07,0,0,0,0,0,0
"Missouri Breaks Research, Inc.",Eagle Butte,SD,45.4277,-101.07448,2025-03-07,0,0,0,0,0,0
Moffitt Cancer Center,Tampa,FL,28.06258,-82.4196,2025-03-07,0,0,0,0,0,0
Monell Chemical Senses Center,Philadelphia,PA,39.95574,-75.19306,2025-03-07,0,0,0,0,0,0
Montana State University - Bozeman,Bozeman,MT,45.66196,-111.05994,2025-03-07,0,0,0,0,0,0
Morehouse School of Medicine,Atlanta,GA,33.74661,-84.41478,2025-03-07,43554.300000000745,127923.49690591138,0.5139407400000088,43554.300000000745,127923.49690591138,0.5139407400000088
Mount Desert Island Biological Lab,Salsbury Cove,ME,44.43066,-68.28841,2025-03-07,0,0,0,0,0,0
"My Brother's Keeper, Inc.",Ridgeland,MS,32.41974,-90.12573,2025-03-07,0,0,0,0,0,0
"NDRI-USA, Inc.",New York,NY,40.74287,-73.99233,2025-03-07,0,0,0,0,0,0
National Medical Association,Silver Spring,MD,38.99487,-77.03025,2025-03-07,0,0,0,0,0,0
National Opinion Research Center,Chicago,IL,41.78587,-87.59754,2025-03-07,0,0,0,0,0,0
Neurovations,Napa,CA,38.32538,-122.29199,2025-03-07,0,0,0,0,0,0
New Jersey Institute of Technology,Newark,NJ,40.74292,-74.17624,2025-03-07,0,0,0,0,0,0
New Mexico State University Las Cruces,Las Cruces,NM,32.27904,-106.7557,2025-03-07,0,0,0,0,0,0
New School University,New York,NY,40.73538,-73.99724,2025-03-07,0,0,0,0,0,0
New York Blood Center,New York,NY,40.76519,-73.95992,2025-03-07,235695,555599.4888019196,1.6734345,235695,555599.4888019196,1.6734345
New York Hall of Science,Corona,NY,40.75257,-73.85476,2025-03-07,0,0,0,0,0,0
New York Medical College,Valhalla,NY,41.08553,-73.81025,2025-03-07,0,0,0,0,0,0
New York University,Mineola,NY,40.7415,-73.64036,2025-03-07,0,0,0,0,0,0
New York University,New York,NY,40.66989,-73.97435,2025-03-07,0,0,0,0,0,0
New York University,New York,NY,40.72966,-73.99702,2025-03-07,0,0,0,0,0,0
North Carolina A&T State University,Greensboro,NC,36.07418,-79.77596,2025-03-07,0,0,0,0,0,0
North Carolina Central University,Durham,NC,35.97467,-78.89805,2025-03-07,0,0,0,0,0,0
North Carolina Department of Health and Human Services,Raleigh,NC,35.67064,-78.66373,2025-03-07,0,0,0,0,0,0
North Carolina State University Raleigh,Raleigh,NC,35.78468,-78.67723,2025-03-07,0,0,0,0,0,0
Northeastern University,Boston,MA,42.34005,-71.08889,2025-03-07,0,0,0,0,0,0
Northwestern University,Chicago,IL,42.05048,-87.68005,2025-03-07,607486.42,1737803.9617837237,6.014115558,607486.42,1737803.9617837237,6.014115558
Nova Southeastern University,Fort Lauderdale-Davie,FL,26.07761,-80.24256,2025-03-07,0,0,0,0,0,0
"Ochin, Inc.",Portland,OR,45.50926,-122.67766,2025-03-07,0,0,0,0,0,0
Ohio State University,Columbus,OH,39.9996,-83.03313,2025-03-07,549794.5700000001,1433852.8890889245,5.442966243000001,549794.5700000001,1433852.8890889245,5.442966243000001
Oklahoma Medical Research Foundation,Oklahoma City,OK,35.48299,-97.49781,2025-03-07,0,0,0,0,0,0
Oklahoma State University Stillwater,Stillwater,OK,36.11563,-97.05804,2025-03-07,0,0,0,0,0,0
Old Dominion University,Norfolk,VA,36.88899,-76.30348,2025-03-07,0,0,0,0,0,0
Olipha Inc,Wilmington,DE,39.74854,-75.54767,2025-03-07,0,0,0,0,0,0
Oregon Health & Science University,Portland,OR,45.49882,-122.68565,2025-03-07,0,0,0,0,0,0
Pacific Institute for Research and Evaluation,Beltsville,MD,39.05068,-76.93727,2025-03-07,0,0,0,0,0,0
Pennsylvania State University,University Park,PA,40.87072,-77.83415,2025-03-07,0,0,0,0,0,0
Pennsylvania State University Hershey Medical Center,Hershey,PA,40.26441,-76.67401,2025-03-07,0,0,0,0,0,0
Portland State University,Portland,OR,45.51201,-122.67948,2025-03-07,0,0,0,0,0,0
"Powertech Water, Inc.",Lexington,KY,38.03558,-84.50572,2025-03-07,0,0,0,0,0,0
Prairie View A&M University,Prairie View,TX,30.08133,-95.99286,2025-03-07,0,0,0,0,0,0
Princeton University,Princeton,NJ,40.34544,-74.65587,2025-03-07,232569.4599999999,756325.4785345936,2.046611247999999,232569.4599999999,756325.4785345936,2.046611247999999
Priogen Corp,Saint Paul,MN,44.97119,-93.2042,2025-03-07,0,0,0,0,0,0
"Pro-Change Behavior Systems, Inc.",Narragansett,RI,41.45103,-71.49752,2025-03-07,0,0,0,0,0,0
Public Health Foundation Enterprises,City Of Industry,CA,34.02948,-118.02327,2025-03-07,0,0,0,0,0,0
Purdue University,West Lafayette,IN,40.41872,-86.91036,2025-03-07,0,0,0,0,0,0
Queen's Medical Center,Honolulu,HI,21.3078,-157.85395,2025-03-07,0,0,0,0,0,0
Queens College,Flushing,NY,40.73586,-73.81575,2025-03-07,0,0,0,0,0,0
Rand Corporation,Santa Monica,CA,34.00966,-118.49094,2025-03-07,0,0,0,0,0,0
Rensselaer Polytechnic Institute,Troy,NY,42.73286,-73.68349,2025-03-07,0,0,0,0,0,0
Research Institute Nationwide Children's Hosp,Columbus,OH,39.95251,-82.9793,2025-03-07,0,0,0,0,0,0
Research Triangle Institute,Research Triangle Park,NC,35.9138,-78.84891,2025-03-07,30649.112637362632,76674.66253354687,0.2972963925824175,30649.112637362632,76674.66253354687,0.2972963925824175
"Resilient Games Studio, LLC",Chicago,IL,41.79896,-87.59808,2025-03-07,0,0,0,0,0,0
Rhode Island Hospital,Providence,RI,41.81168,-71.40937,2025-03-07,0,0,0,0,0,0
Rice University,Houston,TX,29.71724,-95.40276,2025-03-07,0,0,0,0,0,0
Rochester Institute of Technology,Rochester,NY,43.09217,-77.67477,2025-03-07,0,0,0,0,0,0
Rockefeller University,New York,NY,40.76375,-73.95539,2025-03-07,0,0,0,0,0,0
Rosalind Franklin University of Medicine & Science,North Chicago,IL,42.30229,-87.86138,2025-03-07,0,0,0,0,0,0
Roswell Park Cancer Institute Corp,Buffalo,NY,42.87338,-78.86924,2025-03-07,0,0,0,0,0,0
Rowan University,Glassboro,NJ,39.70772,-75.1169,2025-03-07,0,0,0,0,0,0
Rush University Medical Center,Chicago,IL,41.87506,-87.66833,2025-03-07,0,0,0,0,0,0
Rutgers Biomedical and Health Sciences,Newark,NJ,40.52098,-74.47325,2025-03-07,904671.3,2942028.3896648046,7.961107440000001,904671.3,2942028.3896648046,7.961107440000001
Rutgers University,Piscataway,NJ,40.48191,-74.45707,2025-03-07,0,0,0,0,0,0
"Rutgers, Camden",Camden,NJ,39.94748,-75.12305,2025-03-07,0,0,0,0,0,0
"Rutgers, Newark",Newark,NJ,40.74054,-74.17268,2025-03-07,0,0,0,0,0,0
SUNY Downstate Medical Center,Brooklyn,NY,40.65537,-73.94508,2025-03-07,0,0,0,0,0,0
SUNY Upstate Medical University,Syracuse,NY,43.0426,-76.14055,2025-03-07,0,0,0,0,0,0
Sam Houston State University,Huntsville,TX,30.71521,-95.54934,2025-03-07,0,0,0,0,0,0
San Diego State University,San Diego,CA,32.76218,-117.06916,2025-03-07,850826.73,2283014.137408608,7.487275224,850826.73,2283014.137408608,7.487275224
San Francisco Department of Public Health,San Francisco,CA,37.77813,-122.41865,2025-03-07,848391,2276478.369515056,7.4658408000000005,848391,2276478.369515056,7.4658408000000005
San Francisco State University,San Francisco,CA,37.72091,-122.47607000000001,2025-03-07,0,0,0,0,0,0
San Jose State University,San Jose,CA,37.34094,-121.88941,2025-03-07,0,0,0,0,0,0
Sanford Burnham Prebys,La Jolla,CA,32.9036,-117.24298,2025-03-07,0,0,0,0,0,0
Scripps Health,San Diego,CA,32.88774,-117.2238,2025-03-07,0,0,0,0,0,0
Scripps Research Institute,La Jolla,CA,32.90306,-117.24359,2025-03-07,0,0,0,0,0,0
Seattle Children's Hospital,Seattle,WA,47.66243,-122.28229,2025-03-07,14742.080000000045,35633.78666455757,0.11498822400000035,14742.080000000045,35633.78666455757,0.11498822400000035
Silverbills Inc.,New Rochelle,NY,40.94685,-73.77205,2025-03-07,114680.93000000017,270335.2471767701,0.8142346030000012,114680.93000000017,270335.2471767701,0.8142346030000012
Sloan-Kettering Institute Cancer Research,New York,NY,40.76405,-73.95602,2025-03-07,0,0,0,0,0,0
Smith-Kettlewell Eye Research Institute,San Francisco,CA,37.79118,-122.43391,2025-03-07,0,0,0,0,0,0
Society of Behavioral Medicine,Milwaukee,WI,43.04122,-87.90483,2025-03-07,0,0,0,0,0,0
Society of Toxicology,Reston,VA,38.94847,-77.33236,2025-03-07,0,0,0,0,0,0
Southcentral Foundation,Anchorage,AK,61.18215,-149.79596,2025-03-07,1167593.46,4641721.2397546,9.107228988,1167593.46,4641721.2397546,9.107228988
Southeast Arizona Area Health Education Center,Nogales,AZ,31.3407,-110.96079,2025-03-07,0,0,0,0,0,0
Southern Illinois University at Edwardsville,Edwardsville,IL,38.8113,-89.95664,2025-03-07,0,0,0,0,0,0
Spaulding Rehabilitation Hospital,Charlestown,MA,42.37856,-71.04922,2025-03-07,0,0,0,0,0,0
Spelman College,Atlanta,GA,33.74525,-84.41146,2025-03-07,0,0,0,0,0,0
St. Catherine University,St. Paul,MN,44.92488,-93.18313,2025-03-07,0,0,0,0,0,0
St. Jude Children's Research Hospital,Memphis,TN,35.15435,-90.04362,2025-03-07,0,0,0,0,0,0
St. Jude Children's Research Hospital,Memphis,TN,35.15561,-90.04528,2025-03-07,0,0,0,0,0,0
St. Mary's University,San Antonio,TX,29.45193,-98.5606,2025-03-07,0,0,0,0,0,0
Stanford University,Stanford,CA,37.42685,-122.17047,2025-03-07,581883.0900000001,1561360.5848854864,5.120571192000001,581883.0900000001,1561360.5848854864,5.120571192000001
State University New York Stony Brook,Stony Brook,NY,40.91456,-73.12517,2025-03-07,0,0,0,0,0,0
State University of New York at Albany,Albany,NY,42.69171,-73.82559,2025-03-07,0,0,0,0,0,0
State University of New York at Buffalo,Amherst,NY,43.00307,-78.78592,2025-03-07,1234785.25,2910736.5607253043,8.766975275,1234785.25,2910736.5607253043,8.766975275
"State University of New York, Binghamton",Binghamton,NY,42.09521,-75.96456,2025-03-07,0,0,0,0,0,0
"Subtle Medical, Inc.",Menlo Park,CA,37.450920000000004,-122.18522,2025-03-07,0,0,0,0,0,0
Syracuse University,Syracuse,NY,43.04158,-76.13378,2025-03-07,0,0,0,0,0,0
Tech Museum of Innovation,San Jose,CA,37.33148,-121.89018,2025-03-07,0,0,0,0,0,0
Temple University of the Commonwealth,Philadelphia,PA,39.98027,-75.15705,2025-03-07,0,0,0,0,0,0
Tennessee State University,Nashville,TN,36.16833,-86.82852,2025-03-07,0,0,0,0,0,0
Texas A&M University,College Station,TX,30.55165,-96.24288,2025-03-07,0,0,0,0,0,0
Texas A&M University,College Station,TX,30.60588,-96.36877,2025-03-07,0,0,0,0,0,0
Texas Engineering Experiment Station,College Station,TX,30.56154,-96.25321,2025-03-07,0,0,0,0,0,0
Texas State University,San Marcos,TX,29.88877,-97.93744,2025-03-07,0,0,0,0,0,0
Texas Tech University,Lubbock,TX,33.5847,-101.87277,2025-03-07,0,0,0,0,0,0
Texas Tech University Health Sciences Center El Paso,El Paso,TX,31.77,-106.43162,2025-03-07,0,0,0,0,0,0
The Academy of Natural Sciences of Philadelphia,Philadelphia,PA,39.95795,-75.17145,2025-03-07,0,0,0,0,0,0
The Baker Center,Boston,MA,42.33093,-71.10991,2025-03-07,0,0,0,0,0,0
"The Research Foundation for Mental Hygiene, Inc.",New York,NY,40.84308,-73.94421,2025-03-07,0,0,0,0,0,0
Thomas Jefferson University,Philadelphia,PA,39.94821,-75.15782,2025-03-07,0,0,0,0,0,0
Tufts Medical Center,Boston,MA,42.34951,-71.06331,2025-03-07,0,0,0,0,0,0
Tufts University,Boston,MA,42.3498,-71.06149,2025-03-07,0,0,0,0,0,0
Tufts University,Boston,MA,42.40117,-71.12536,2025-03-07,0,0,0,0,0,0
Tulane University of Louisiana,New Orleans,LA,29.93543,-90.12279,2025-03-07,0,0,0,0,0,0
University of Alabama,Tuscaloosa,AL,33.21566,-87.53919,2025-03-07,0,0,0,0,0,0
University of Alabama at Birmingham,Birmingham,AL,33.50591,-86.79977,2025-03-07,372977.8400000001,918442.0189761093,3.4313961280000007,372977.8400000001,918442.0189761093,3.4313961280000007
University of Alaska Anchorage,Anchorage,AK,61.19065,-149.81813,2025-03-07,0,0,0,0,0,0
University of Alaska Fairbanks,Fairbanks,AK,64.85744,-147.8003,2025-03-07,0,0,0,0,0,0
University of Arizona,Tucson,AZ,32.23284,-110.95947,2025-03-07,602701.49,1770312.3090808361,6.147555198,602701.49,1770312.3090808361,6.147555198
University of Arkansas at Fayetteville,Fayetteville,AR,36.06992,-94.17696,2025-03-07,0,0,0,0,0,0
University of Arkansas for Medical Sciences,Little Rock,AR,34.749,-92.3201,2025-03-07,0,0,0,0,0,0
University of California Berkeley,Berkeley,CA,37.87002,-122.26862,2025-03-07,0,0,0,0,0,0
University of California Los Angeles,Los Angeles,CA,34.0702,-118.45102,2025-03-07,0,0,0,0,0,0
University of California Riverside,Riverside,CA,33.97259,-117.35036,2025-03-07,0,0,0,0,0,0
University of California Santa Barbara,Santa Barbara,CA,34.43131,-119.83428,2025-03-07,67718.27000000002,181707.69948759518,0.5959207760000002,67718.27000000002,181707.69948759518,0.5959207760000002
University of California Santa Cruz,Santa Cruz,CA,36.97756,-122.05584,2025-03-07,0,0,0,0,0,0
University of California at Davis,Davis,CA,38.54337,-121.72946,2025-03-07,0,0,0,0,0,0
"University of California, Merced",Merced,CA,37.35131,-120.4324,2025-03-07,0,0,0,0,0,0
"University of California, San Diego",La Jolla,CA,32.87699,-117.24087,2025-03-07,1502565.33,4031817.254695361,13.222574904000002,1502565.33,4031817.254695361,13.222574904000002
"University of California, San Francisco",San Francisco,CA,37.76744,-122.41394,2025-03-07,2185488.91,5864298.690615573,19.232302408000002,2185488.91,5864298.690615573,19.232302408000002
University of California-Irvine,Irvine,CA,33.64852,-117.82136,2025-03-07,728030.49,1953516.3183395946,6.406668312,728030.49,1953516.3183395946,6.406668312
University of Central Florida,Orlando,FL,28.60103,-81.19727,2025-03-07,56561.640000000014,181682.10508671773,0.6334903680000001,56561.640000000014,181682.10508671773,0.6334903680000001
University of Chicago,Chicago,IL,41.78955,-87.60117,2025-03-07,84460.32,241611.1272240803,0.8361571680000001,84460.32,241611.1272240803,0.8361571680000001
University of Cincinnati,Cincinnati,OH,39.12972,-84.52055,2025-03-07,0,0,0,0,0,0
University of Colorado Denver,Aurora,CO,39.7451,-104.8376,2025-03-07,305147.98,854677.6295737704,2.9294206079999996,305147.98,854677.6295737704,2.9294206079999996
University of Colorado-Boulder,Boulder,CO,38.89128,-104.80006,2025-03-07,0,0,0,0,0,0
University of Colorado-Boulder,Boulder,CO,40.0133,-105.25193,2025-03-07,0,0,0,0,0,0
University of Colorado-Colorado Springs,Colorado Springs,CO,38.89128,-104.80006,2025-03-07,0,0,0,0,0,0
University of Colorado-Colorado Springs,Colorado Springs,CO,40.0133,-105.25193,2025-03-07,0,0,0,0,0,0
University of Connecticut School of Medicine,Farmington,CT,41.73418,-72.79379,2025-03-07,0,0,0,0,0,0
University of Connecticut Storrs,Storrs-Mansfield,CT,41.81142,-72.24755,2025-03-07,0,0,0,0,0,0
University of Delaware,Newark,DE,39.71451,-75.73872,2025-03-07,0,0,0,0,0,0
University of Denver (Colorado Seminary),Denver,CO,39.67664,-104.95948,2025-03-07,0,0,0,0,0,0
University of Detroit Mercy,Detroit,MI,42.41708,-83.13885,2025-03-07,0,0,0,0,0,0
University of Florida,Gainesville,FL,29.64344,-82.34964,2025-03-07,0,0,0,0,0,0
University of Georgia,Athens,GA,33.93117,-83.37887,2025-03-07,2521892.81,7407060.77418463,29.758335158,2521892.81,7407060.77418463,29.758335158
University of Hartford,West Hartford,CT,41.79337,-72.71626,2025-03-07,0,0,0,0,0,0
University of Hawaii at Manoa,Honolulu,HI,21.2992,-157.82037,2025-03-07,0,0,0,0,0,0
University of Houston,Houston,TX,29.71809,-95.33648,2025-03-07,0,0,0,0,0,0
University of Idaho,Moscow,ID,46.73029,-116.99685,2025-03-07,0,0,0,0,0,0
University of Illinois at Chicago,Chicago,IL,41.87151,-87.66772,2025-03-07,0,0,0,0,0,0
University of Illinois at Urbana-Champaign,Champaign,IL,40.11686,-88.22876,2025-03-07,33786.830000000016,96652.18035674475,0.3344896170000002,33786.830000000016,96652.18035674475,0.3344896170000002
University of Iowa,Iowa City,IA,41.66441,-91.54215,2025-03-07,0,0,0,0,0,0
University of Kansas Lawrence,Lawrence,KS,38.95154,-95.26556,2025-03-07,0,0,0,0,0,0
University of Kansas Medical Center,Kansas City,KS,39.02658,-94.63635,2025-03-07,0,0,0,0,0,0
University of Kentucky,Lexington,KY,38.04096,-84.50589,2025-03-07,0,0,0,0,0,0
University of Louisville,Louisville,KY,38.21502,-85.76014,2025-03-07,0,0,0,0,0,0
University of Maryland Baltimore,Baltimore,MD,39.25246,-76.71121,2025-03-07,0,0,0,0,0,0
University of Maryland Baltimore,Baltimore,MD,39.29225,-76.62563,2025-03-07,0,0,0,0,0,0
"University of Maryland, College Park",College Park,MD,38.99233,-76.95299,2025-03-07,0,0,0,0,0,0
University of Massachusetts Amherst,Hadley,MA,42.38691,-72.52113,2025-03-07,0,0,0,0,0,0
University of Massachusetts Boston,Boston,MA,42.3137,-71.06298,2025-03-07,0,0,0,0,0,0
University of Massachusetts Medical School Worcester,Worcester,MA,42.2802,-71.75824,2025-03-07,0,0,0,0,0,0
University of Memphis,Memphis,TN,35.12012,-89.9397,2025-03-07,0,0,0,0,0,0
University of Miami,Coral Gables,FL,25.71347,-80.27725,2025-03-07,810116.6,2602182.137110848,9.07330592,810116.6,2602182.137110848,9.07330592
University of Michigan at Ann Arbor,Ann Arbor,MI,42.27549,-83.74304,2025-03-07,1153569.23,2938882.3761096676,11.189621531,1153569.23,2938882.3761096676,11.189621531
University of Minnesota,Minneapolis,MN,44.97514,-93.227,2025-03-07,2631577.9000000004,6503808.663751725,23.94735889,2631577.9000000004,6503808.663751725,23.94735889
University of Mississippi,University,MS,34.36739,-89.52896,2025-03-07,0,0,0,0,0,0
University of Mississippi Medical Center,Jackson,MS,32.32872,-90.17554,2025-03-07,0,0,0,0,0,0
University of Missouri Kansas City,Kansas City,MO,39.03452,-94.57577,2025-03-07,0,0,0,0,0,0
University of Missouri-Columbia,Columbia,MO,38.94823,-92.32734,2025-03-07,0,0,0,0,0,0
University of Montana,Missoula,MT,46.8602,-113.98372,2025-03-07,0,0,0,0,0,0
University of Nebraska Lincoln,Lincoln,NE,40.82302,-96.67344,2025-03-07,379703.57999999984,982540.2786941092,3.4932729359999986,379703.57999999984,982540.2786941092,3.4932729359999986
University of Nebraska Medical Center,Omaha,NE,41.266,-96.01003,2025-03-07,0,0,0,0,0,0
University of Nevada Las Vegas,Las Vegas,NV,36.10952,-115.14195,2025-03-07,342082.66,1811650.1731264917,2.9761191419999995,342082.66,1811650.1731264917,2.9761191419999995
University of Nevada Reno,Reno,NV,39.54508,-119.81828,2025-03-07,0,0,0,0,0,0
University of New Mexico,Albuquerque,NM,35.09023,-106.62529,2025-03-07,0,0,0,0,0,0
University of New Mexico,Albuquerque,NM,35.09097,-106.61754,2025-03-07,0,0,0,0,0,0
University of North Carolina Chapel Hill,Chapel Hill,NC,35.9316,-79.05738,2025-03-07,0,0,0,0,0,0
University of North Carolina Charlotte,Charlotte,NC,35.30165,-80.73145,2025-03-07,0,0,0,0,0,0
University of North Carolina Greensboro,Greensboro,NC,36.06505,-79.80897,2025-03-07,0,0,0,0,0,0
University of North Carolina at Pembroke,Pembroke,NC,34.69413,-79.19811,2025-03-07,0,0,0,0,0,0
University of North Dakota,Grand Forks,ND,47.91987,-97.07282,2025-03-07,0,0,0,0,0,0
University of North Florida,Jacksonville,FL,30.27067,-81.51043,2025-03-07,0,0,0,0,0,0
University of North Texas,Denton,TX,33.21077,-97.14777,2025-03-07,0,0,0,0,0,0
University of North Texas Health Science Center,Fort Worth,TX,32.74954,-97.36903,2025-03-07,0,0,0,0,0,0
University of Notre Dame,Notre Dame,IN,41.6939,-86.23928,2025-03-07,0,0,0,0,0,0
University of Oklahoma,Norman,OK,35.20922,-97.44378,2025-03-07,0,0,0,0,0,0
University of Oklahoma Health Sciences Center,Oklahoma City,OK,35.47459,-97.50503,2025-03-07,0,0,0,0,0,0
University of Oregon,Eugene,OR,44.04551,-123.06974,2025-03-07,0,0,0,0,0,0
University of Pennsylvania,Philadelphia,PA,39.95346,-75.19398,2025-03-07,1118200.3499999999,2688827.2038044436,9.504702974999999,1118200.3499999999,2688827.2038044436,9.504702974999999
University of Pittsburgh at Pittsburgh,Pittsburgh,PA,40.44091,-79.95912,2025-03-07,914349.65,2198647.328905837,7.771972025,914349.65,2198647.328905837,7.771972025
University of Rhode Island,Kingston,RI,41.48604,-71.52866,2025-03-07,0,0,0,0,0,0
University of Rochester,Rochester,NY,43.13177,-77.63546,2025-03-07,0,0,0,0,0,0
University of San Francisco,San Francisco,CA,37.77529,-122.45173,2025-03-07,555384.5,1490257.205715212,4.887383600000001,555384.5,1490257.205715212,4.887383600000001
University of South Carolina at Columbia,Columbia,SC,33.99962,-81.02825,2025-03-07,396055.69,1145230.4770640433,4.079373607,396055.69,1145230.4770640433,4.079373607
University of South Dakota,Vermillion,SD,42.78263,-96.92543,2025-03-07,0,0,0,0,0,0
University of South Florida,Tampa,FL,28.07404,-82.39596,2025-03-07,0,0,0,0,0,0
University of Southern California,Los Angeles,CA,34.01728,-118.28125,2025-03-07,0,0,0,0,0,0
University of Tennessee Chattanooga,Chattanooga,TN,35.04582,-85.29982,2025-03-07,84553.60999999999,227618.35905119203,0.8455360999999999,84553.60999999999,227618.35905119203,0.8455360999999999
University of Tennessee Knoxville,Knoxville,TN,35.95494,-83.93035,2025-03-07,0,0,0,0,0,0
University of Texas Arlington,Arlington,TX,32.7282,-97.1126,2025-03-07,0,0,0,0,0,0
University of Texas Dallas,Richardson,TX,32.99173,-96.7437,2025-03-07,0,0,0,0,0,0
University of Texas El Paso,El Paso,TX,31.77052,-106.50415,2025-03-07,0,0,0,0,0,0
University of Texas Health Science Center,San Antonio,TX,29.51309,-98.57774,2025-03-07,0,0,0,0,0,0
University of Texas Health Science Center Houston,Houston,TX,29.70303,-95.4033,2025-03-07,0,0,0,0,0,0
University of Texas Medical Branch Galveston,Galveston,TX,29.31103,-94.77801,2025-03-07,0,0,0,0,0,0
University of Texas San Antonio,San Antonio,TX,29.56712,-98.60572,2025-03-07,0,0,0,0,0,0
University of Texas Southwestern Medical Center,Dallas,TX,32.81196,-96.83753,2025-03-07,0,0,0,0,0,0
University of Texas at Austin,Austin,TX,30.29119,-97.73757,2025-03-07,0,0,0,0,0,0
University of Toledo Health Science Campus,Toledo,OH,41.61955,-83.62073,2025-03-07,0,0,0,0,0,0
University of Tx Md Anderson Cancer Center,Houston,TX,29.70632,-95.3972,2025-03-07,0,0,0,0,0,0
University of Utah,Salt Lake City,UT,40.76454,-111.85032,2025-03-07,2763549.1799999997,7590523.783836897,31.780815569999998,2763549.1799999997,7590523.783836897,31.780815569999998
University of Vermont and State Agricultural College,Burlington,VT,44.47828,-73.20108,2025-03-07,0,0,0,0,0,0
University of Virginia,Charlottesville,VA,38.05053,-78.50053,2025-03-07,0,0,0,0,0,0
University of Washington,Seattle,WA,47.66031,-122.31517,2025-03-07,5319.5,12858.017875504233,0.0414921,5319.5,12858.017875504233,0.0414921
University of West Florida,Pensacola,FL,30.54909,-87.21527,2025-03-07,0,0,0,0,0,0
University of Wisconsin Milwaukee,Milwaukee,WI,43.0757,-87.878,2025-03-07,0,0,0,0,0,0
University of Wisconsin-Madison,Madison,WI,43.06852,-89.40086,2025-03-07,0,0,0,0,0,0
University of the District of Columbia,Washington,DC,38.94444,-77.06433,2025-03-07,0,0,0,0,0,0
University of the Pacific-Stockton,Stockton,CA,37.98434,-121.30996,2025-03-07,0,0,0,0,0,0
Urban Health Partnerships,Miami,FL,25.75816,-80.19932,2025-03-07,329995.70999999996,1059981.911104169,3.6959519519999993,329995.70999999996,1059981.911104169,3.6959519519999993
"Us Helping Us, People Into Living, Inc.",Washington,DC,38.9351,-77.0244,2025-03-07,65000,128106.79611650486,0.104,65000,128106.79611650486,0.104
Van Andel Research Institute,Grand Rapids,MI,42.96939,-85.6664,2025-03-07,105648.17999999993,269153.8281322411,1.0247873459999994,105648.17999999993,269153.8281322411,1.0247873459999994
Vanderbilt University,Nashville,TN,36.14338,-86.80336,2025-03-07,992753.8500000001,2672493.844777926,9.927538500000002,992753.8500000001,2672493.844777926,9.927538500000002
Vanderbilt University,Nashville,TN,36.14378,-86.801,2025-03-07,0,0,0,0,0,0
Virginia Commonwealth University,Richmond,VA,37.54981,-77.45278,2025-03-07,0,0,0,0,0,0
Virginia Polytechnic Institute and St Univ,Blacksburg,VA,37.23306,-80.421,2025-03-07,0,0,0,0,0,0
WETA TV 26,Arlington,VA,38.84087,-77.08649,2025-03-07,0,0,0,0,0,0
Wadsworth Center,Menands,NY,42.64589,-73.79766,2025-03-07,0,0,0,0,0,0
Wake Forest University Health Sciences,Winston-Salem,NC,36.0594,-80.32198,2025-03-07,0,0,0,0,0,0
Washington State University,Pullman,WA,46.72889,-117.15574,2025-03-07,0,0,0,0,0,0
Washington University,Saint Louis,MO,38.66437,-90.3238,2025-03-07,1080692.6700000004,2540932.5445867823,9.293956962000003,1080692.6700000004,2540932.5445867823,9.293956962000003
Wayne State University,Detroit,MI,42.35747,-83.06529,2025-03-07,0,0,0,0,0,0
Weill Medical College of Cornell University,New York,NY,40.7607,-73.9603,2025-03-07,0,0,0,0,0,0
"Westat, Inc.",Bethesda,MD,39.09463,-77.18145,2025-03-07,0,0,0,0,0,0
Western Kentucky University,Bowling Green,KY,36.9868,-86.45538,2025-03-07,0,0,0,0,0,0
"Whitman-Walker Institute, Inc.",Washington,DC,38.9127,-77.03142,2025-03-07,0,0,0,0,0,0
Winifred Masterson Burke Medical Research Institute,White Plains,NY,41.01658,-73.75221,2025-03-07,0,0,0,0,0,0
Wistar Institute,Philadelphia,PA,39.95129,-75.19577,2025-03-07,0,0,0,0,0,0
Worcester Polytechnic Institute,Worcester,MA,42.27404,-71.80669,2025-03-07,0,0,0,0,0,0
Xavier University of Louisiana,New Orleans,LA,29.96429,-90.10747,2025-03-07,0,0,0,0,0,0
Yale University,New Haven,CT,41.31092,-72.92643,2025-03-07,1985688.89,4516558.440485648,15.091235563999998,1985688.89,4516558.440485648,15.091235563999998
Academic Pediatric Association,Mc Lean,VA,38.93747,-77.17694,2025-03-14,0,0,0,0,0,0
Access Health Inc.,Muskegon,MI,43.23096,-86.24311,2025-03-14,0,0,0,0,0,0
"Accurius Therapeutics, Inc.",Lexington,MA,42.45835,-71.20621,2025-03-14,0,0,0,0,0,0
Alabama State University,Montgomery,AL,32.36501,-86.2957,2025-03-14,0,0,0,0,0,0
Albert Einstein College of Medicine,Bronx,NY,40.85103,-73.84438,2025-03-14,0,0,0,0,0,0
Allen Institute,Seattle,WA,47.65008,-122.3516,2025-03-14,0,0,0,0,0,0
American Gastroenterological Association Institute,Bethesda,MD,38.98933,-77.0992,2025-03-14,0,0,0,0,0,0
American Psychological Association,Washington,DC,38.89984,-77.00754,2025-03-14,0,0,0,0,0,0
American Society for Bone & Mineral Research,Washington,DC,38.90596,-77.04579,2025-03-14,0,0,0,0,0,0
"American Society of Nephrology, Inc.",Washington,DC,38.89999,-77.03432,2025-03-14,0,0,0,0,0,0
American University,Washington,DC,38.93695,-77.08947,2025-03-14,0,0,0,0,0,0
Arizona State University-Tempe Campus,Scottsdale,AZ,33.42395,-111.94069,2025-03-14,71.65999999997439,210.486587761194,7.309319999997388e-4,71.65999999997439,210.486587761194,7.309319999997388e-4
Arkansas Cancer Coalition,Little Rock,AR,34.75984,-92.34041,2025-03-14,0,0,0,0,0,0
Asian American Health Coalition,Houston,TX,29.71509,-95.55379,2025-03-14,0,0,0,0,0,0
Asian Community Health Coalition,Philadelphia,PA,39.9607,-75.15706,2025-03-14,0,0,0,0,0,0
Auburn University at Auburn,Auburn,AL,32.60214,-85.5085,2025-03-14,0,0,0,0,0,0
Augusta University,Augusta,GA,33.47096,-81.9914,2025-03-14,0,0,0,0,0,0
Banner Health,Phoenix,AZ,33.43342,-112.08759,2025-03-14,0,0,0,0,0,0
Baylor College of Medicine,Houston,TX,29.70926,-95.40085,2025-03-14,0,0,0,0,0,0
Baylor University,Waco,TX,31.55571,-97.1214,2025-03-14,0,0,0,0,0,0
Beckman Research Institute,Duarte,CA,34.12772,-117.97244,2025-03-14,0,0,0,0,0,0
"Bellage, Inc.",Sunnyside,NY,40.74767,-73.9181,2025-03-14,0,0,0,0,0,0
Bentley University,Waltham,MA,42.38883,-71.22023,2025-03-14,0,0,0,0,0,0
Beth Israel Deaconess Medical Center,Boston,MA,42.33982,-71.10568,2025-03-14,44924.22,100629.67323462148,0.354901338,44924.22,100629.67323462148,0.354901338
Boston Children's Hospital,Boston,MA,42.33748,-71.10496,2025-03-14,3239112.3600000003,7255569.898754473,25.588987644000003,3239112.3600000003,7255569.898754473,25.588987644000003
Boston College,Chestnut Hill,MA,42.33696,-71.1705,2025-03-14,0,0,0,0,0,0
Boston Medical Center,Boston,MA,42.33685,-71.07088,2025-03-14,0,0,0,0,0,0
Boston University,Boston,MA,42.33639,-71.07097,2025-03-14,0,0,0,0,0,0
Boston University,Boston,MA,42.34959,-71.09973,2025-03-14,234403.9500000002,525061.823964992,1.8517912050000016,234403.9500000002,525061.823964992,1.8517912050000016
Brandeis University,Waltham,MA,42.36638,-71.25452,2025-03-14,0,0,0,0,0,0
Brigham and Women's Hospital,Boston,MA,42.33611,-71.10748,2025-03-14,639871.73,1433304.4202430658,5.0549866670000005,639871.73,1433304.4202430658,5.0549866670000005
"Broad Institute, Inc.",Cambridge,MA,42.36308,-71.08789,2025-03-14,0,0,0,0,0,0
"Bronxworks, Inc.",Bronx,NY,40.851,-73.9081,2025-03-14,0,0,0,0,0,0
Brooklyn College,New York,NY,40.63164,-73.95287,2025-03-14,0,0,0,0,0,0
Brown University,Providence,RI,41.82614,-71.40451,2025-03-14,2097897.75,4365848.419354838,15.52444335,2097897.75,4365848.419354838,15.52444335
Butler Hospital,Providence,RI,41.84359,-71.37966,2025-03-14,16536.440000000002,34413.30276261373,0.12236965600000002,16536.440000000002,34413.30276261373,0.12236965600000002
California Institute of Technology,Pasadena,CA,34.13433,-118.12652,2025-03-14,0,0,0,0,0,0
"California Polytechnic State University, San Luis Obispo",San Luis Obispo,CA,35.29932,-120.65662,2025-03-14,0,0,0,0,0,0
California State University - Dominguez Hills,Carson,CA,33.86714,-118.25534,2025-03-14,0,0,0,0,0,0
California State University Bakersfield,Bakersfield,CA,35.35426,-119.10759,2025-03-14,0,0,0,0,0,0
California State University Fullerton,Fullerton,CA,33.8781,-117.88425,2025-03-14,0,0,0,0,0,0
California State University Long Beach,Long Beach,CA,33.7811,-118.1099,2025-03-14,0,0,0,0,0,0
California State University Los Angeles,Los Angeles,CA,34.06254,-118.16904,2025-03-14,0,0,0,0,0,0
California State University Northridge,Northridge,CA,34.24588,-118.50188,2025-03-14,0,0,0,0,0,0
California State University Sacramento,Sacramento,CA,38.55385,-121.42126,2025-03-14,0,0,0,0,0,0
California State University San Bernardino,San Bernardino,CA,34.17678,-117.33018,2025-03-14,0,0,0,0,0,0
California State University San Marcos,San Marcos,CA,33.13799,-117.15109,2025-03-14,0,0,0,0,0,0
Cambridge Health Alliance,Cambridge,MA,42.37442,-71.10444,2025-03-14,0,0,0,0,0,0
Campesinos Sin Fronteras,Somerton,AZ,32.59632,-114.7127,2025-03-14,0,0,0,0,0,0
Carnegie-Mellon University,Pittsburgh,PA,40.44296,-79.94108,2025-03-14,0,0,0,0,0,0
Case Western Reserve University,Cleveland,OH,41.50274,-81.60733,2025-03-14,0,0,0,0,0,0
Cedars-Sinai Medical Center,Los Angeles,CA,34.07654,-118.38,2025-03-14,0,0,0,0,0,0
Center for Innovative Public Health Research,San Clemente,CA,33.43004,-117.61655,2025-03-14,725382,1946409.6538454206,6.383361600000001,725382,1946409.6538454206,6.383361600000001
Central Michigan University,Mount Pleasant,MI,43.6014,-84.78711,2025-03-14,0,0,0,0,0,0
Charles R. Drew University of Medicine & Science,Los Angeles,CA,33.92395,-118.24569,2025-03-14,0,0,0,0,0,0
Cherokee Nation,Tahlequah,OK,35.85318,-94.99067,2025-03-14,0,0,0,0,0,0
Children's Hospital of Los Angeles,Los Angeles,CA,34.09806,-118.29069,2025-03-14,0,0,0,0,0,0
Children's Hospital of Philadelphia,Philadelphia,PA,39.94663,-75.1966,2025-03-14,9857.589999999997,23703.58420648915,0.08378951499999997,9857.589999999997,23703.58420648915,0.08378951499999997
Children's Research Institute,Washington,DC,38.92727,-77.0144,2025-03-14,1501766.38,2959791.9916504854,2.4028262079999996,1501766.38,2959791.9916504854,2.4028262079999996
Cincinnati Children's Hospital Medical Center,Cincinnati,OH,39.14066,-84.50101,2025-03-14,0,0,0,0,0,0
City College of New York,New York,NY,40.81941,-73.95017,2025-03-14,0,0,0,0,0,0
Claflin University,Orangeburg,SC,33.49592,-80.85546,2025-03-14,0,0,0,0,0,0
Claremont Graduate University,Claremont,CA,34.10328,-117.71447,2025-03-14,0,0,0,0,0,0
Clark Atlanta University,Atlanta,GA,33.74773,-84.41301,2025-03-14,0,0,0,0,0,0
Clarkson University,Potsdam,NY,44.65482,-74.95554,2025-03-14,0,0,0,0,0,0
Clemson University,Clemson,SC,34.67315,-82.82396,2025-03-14,0,0,0,0,0,0
Cleveland Clinic Lerner College of Medicine - Case Western Reserve University,Cleveland,OH,41.50266,-81.62213,2025-03-14,0,0,0,0,0,0
Cold Spring Harbor Laboratory,Cold Spring Harbor,NY,40.86755,-73.47346,2025-03-14,0,0,0,0,0,0
Colliga Apps Corp.,Austin,TX,25.76305,-80.19045,2025-03-14,0,0,0,0,0,0
Colorado School of Mines,Golden,CO,39.75113,-105.22231,2025-03-14,0,0,0,0,0,0
Colorado State University,Fort Collins,CO,40.57951,-105.08127,2025-03-14,0,0,0,0,0,0
Columbia University,New York,NY,40.8101,-73.9606,2025-03-14,24823,58514.80137690682,0.1762433,24823,58514.80137690682,0.1762433
Columbia University,New York,NY,40.81207,-73.95438,2025-03-14,11135936.639999999,26250538.638980743,79.06515014399999,11135936.639999999,26250538.638980743,79.06515014399999
Columbia University,New York,NY,40.8415,-73.9414,2025-03-14,494702903.4205627,1166154056.0864255,3512.390614285995,494702903.4205627,1166154056.0864255,3512.390614285995
Cornell University,Ithaca,NY,42.438,-76.4625,2025-03-14,0,0,0,0,0,0
Creighton University,Omaha,NE,41.2643,-95.94809,2025-03-14,0,0,0,0,0,0
Dana-Farber Cancer Institute,Boston,MA,42.33759,-71.10828,2025-03-14,0,0,0,0,0,0
Dartmouth College,Hanover,NH,43.71139,-72.27061,2025-03-14,0,0,0,0,0,0
Dartmouth-Hitchcock Clinic,Lebanon,NH,43.63701,-72.25238,2025-03-14,0,0,0,0,0,0
Delaware State University,Dover,DE,39.18938,-75.54117,2025-03-14,0,0,0,0,0,0
"Delta Health Alliance, Inc.",Stoneville,MS,33.40757,-90.91122,2025-03-14,0,0,0,0,0,0
Denver Health and Hospital Authority,Denver,CO,39.7273,-104.99157,2025-03-14,16997,47606.26522864538,0.1631712,16997,47606.26522864538,0.1631712
Dillard University,New Orleans,LA,29.99621,-90.06596,2025-03-14,0,0,0,0,0,0
Drexel University,Philadelphia,PA,39.95407,-75.18654,2025-03-14,1480022.48,3558865.5525515787,12.58019108,1480022.48,3558865.5525515787,12.58019108
Duke University,Durham,NC,36.00777,-78.92648,2025-03-14,8597.419999999998,21508.103185851032,0.08339497399999998,8597.419999999998,21508.103185851032,0.08339497399999998
Duquesne University,Pittsburgh,PA,40.43782,-79.99365,2025-03-14,92040.94999999995,221321.88585346492,0.7823480749999996,92040.94999999995,221321.88585346492,0.7823480749999996
East Carolina University,Greenville,NC,35.60836,-77.3648,2025-03-14,0,0,0,0,0,0
East Tennessee State University,Johnson City,TN,36.33089,-82.36558,2025-03-14,0,0,0,0,0,0
Eastern Michigan University,Ypsilanti,MI,42.23313,-83.62377,2025-03-14,0,0,0,0,0,0
"Ecohealth Alliance, Inc.",New York,NY,40.75406,-73.99895,2025-03-14,5716314.399999999,13474962.805621892,40.585832239999995,5716314.399999999,13474962.805621892,40.585832239999995
Emma Pendleton Bradley Hospital,Riverside,RI,41.79238,-71.3674,2025-03-14,0,0,0,0,0,0
Emory University,Atlanta,GA,33.79125,-84.3249,2025-03-14,2532905.11,7439405.041569869,29.888280298,2532905.11,7439405.041569869,29.888280298
Endeavor Health Clinical Operations,Evanston,IL,42.0647,-87.68987,2025-03-14,1145201.9,3276017.9212931995,11.33749881,1145201.9,3276017.9212931995,11.33749881
Endocrine Society,Washington,DC,38.90411,-77.04616,2025-03-14,0,0,0,0,0,0
"Equiti Foods, LLC",Chapel Hill,NC,35.90131,-79.06105,2025-03-14,0,0,0,0,0,0
"Families Against Narcotics, Inc.",Clinton Twp,MI,42.55372,-82.92816,2025-03-14,0,0,0,0,0,0
Family Health International,Durham,NC,35.99283,-78.90391,2025-03-14,0,0,0,0,0,0
Father Flanagan's Boys' Home,Boys Town,NE,41.25345,-96.13386,2025-03-14,0,0,0,0,0,0
Fayetteville State University,Fayetteville,NC,35.07155,-78.89445,2025-03-14,0,0,0,0,0,0
Fenway Community Health Center,Boston,MA,42.34412,-71.09841,2025-03-14,0,0,0,0,0,0
Feonix - Mobility Rising,Lincoln,NE,40.85914,-96.72561,2025-03-14,0,0,0,0,0,0
Florida A&M University,Tallahassee,FL,30.42891,-84.28977,2025-03-14,0,0,0,0,0,0
Florida International University,Miami,FL,25.76105,-80.3762,2025-03-14,0,0,0,0,0,0
Florida State University,Tallahassee,FL,30.44146,-84.29789,2025-03-14,2728253.87,8763446.503895294,30.556443344,2728253.87,8763446.503895294,30.556443344
Fordham University,Bronx,NY,40.86209,-73.88639,2025-03-14,76336,179945.44889447524,0.5419856,76336,179945.44889447524,0.5419856
Fort Lewis College,Durango,CO,37.27498,-107.87204,2025-03-14,0,0,0,0,0,0
Fred Hutchinson Cancer Center,Seattle,WA,47.62648,-122.32961,2025-03-14,0,0,0,0,0,0
"Friends Research Institute, Inc.",Baltimore,MD,39.30368,-76.61989,2025-03-14,919679,2014014.3731748404,7.725303600000001,919679,2014014.3731748404,7.725303600000001
"Function Promoting Therapies, LLC",Boston,MA,42.33724,-71.10217,2025-03-14,0,0,0,0,0,0
"Genendeavor, LLC",Hayward,CA,37.52099,-121.94829,2025-03-14,0,0,0,0,0,0
Genetobe Inc.,Ann Arbor,MI,42.32232,-83.65208,2025-03-14,0,0,0,0,0,0
George Washington University,Washington,DC,38.89808,-77.04393,2025-03-14,1684087.64,3319124.18368932,2.694540224,1684087.64,3319124.18368932,2.694540224
Georgetown University,Washington,DC,38.90521,-77.07547,2025-03-14,0,0,0,0,0,0
Georgia Institute of Technology,Atlanta,GA,33.7819,-84.40401,2025-03-14,0,0,0,0,0,0
Georgia State University,Atlanta,GA,33.75353,-84.38448,2025-03-14,41537.03000000003,121998.56566827296,0.49013695400000035,41537.03000000003,121998.56566827296,0.49013695400000035
Gerontological Society of America,Washington,DC,38.90339,-77.02915,2025-03-14,0,0,0,0,0,0
Gladstone Institutes,San Francisco,CA,37.76762,-122.39432,2025-03-14,0,0,0,0,0,0
Gordon Research Conferences,East Greenwich,RI,41.48,-71.56965,2025-03-14,2021.7391304347825,4207.357859531771,0.014960869565217392,2021.7391304347825,4207.357859531771,0.014960869565217392
Hackensack University Medical Center,Hackensack,NJ,40.88342,-74.05565,2025-03-14,0,0,0,0,0,0
Hampton University,Hampton,VA,37.02566,-76.34773,2025-03-14,0,0,0,0,0,0
Hartford Hospital,Hartford,CT,41.75412,-72.67985,2025-03-14,0,0,0,0,0,0
"Harvard Pilgrim Health Care, Inc.",Canton,MA,42.31681,-71.2346,2025-03-14,2046475.28,4584078.225712778,16.167154712000002,2046475.28,4584078.225712778,16.167154712000002
Harvard University,Boston,MA,42.33531,-71.10277,2025-03-14,1821722.7,4080635.3460358884,14.391609330000001,1821722.7,4080635.3460358884,14.391609330000001
Harvard University,Boston,MA,42.33567,-71.10424,2025-03-14,0,0,0,0,0,0
Harvard University,Cambridge,MA,42.3697,-71.11193,2025-03-14,18146.47999999998,40647.881093062766,0.14335719199999986,18146.47999999998,40647.881093062766,0.14335719199999986
"Health Choice Network, Inc.",Miami,FL,25.78484,-80.34186,2025-03-14,0,0,0,0,0,0
Healthpartners Institute,Bloomington,MN,44.85364,-93.22558,2025-03-14,335296.56000000006,828668.1051144828,3.051198696,335296.56000000006,828668.1051144828,3.051198696
Healthy Tarrant County Collaboration,Fort Worth,TX,32.76545,-97.25287,2025-03-14,0,0,0,0,0,0
Hebrew Rehabilitation Center for Aged,Boston,MA,42.29668,-71.13073,2025-03-14,0,0,0,0,0,0
Hennepin Healthcare Research Institute,Minneapolis,MN,44.9721,-93.2624,2025-03-14,0,0,0,0,0,0
Herbert H. Lehman College,New York,NY,40.87086,-73.8866,2025-03-14,0,0,0,0,0,0
Hopa Mountain,Bozeman,MT,45.67802,-111.03301,2025-03-14,0,0,0,0,0,0
Hospital for Special Surgery,New York,NY,40.76532,-73.95395,2025-03-14,0,0,0,0,0,0
Housing Authority of the City of Los Angeles,Los Angeles,CA,34.06041,-118.28167,2025-03-14,0,0,0,0,0,0
Howard University,Washington,DC,38.92314,-77.02158,2025-03-14,0,0,0,0,0,0
Hugo W. Moser Research Institute Kennedy Krieger,Baltimore,MD,39.2987,-76.59368,2025-03-14,0,0,0,0,0,0
Hunter College,New York,NY,40.76874,-73.96518,2025-03-14,734020.73,1730293.5673561676,5.2115471829999995,734020.73,1730293.5673561676,5.2115471829999995
Ibis Reproductive Health,Cambridge,MA,42.37281,-71.1191,2025-03-14,0,0,0,0,0,0
Icahn School of Medicine at Mount Sinai,New York,NY,40.79028,-73.94678,2025-03-14,2154027.2,5077648.70355939,15.29359312,2154027.2,5077648.70355939,15.29359312
Illinois Institute of Technology,Chicago,IL,41.83106,-87.62905,2025-03-14,0,0,0,0,0,0
Indiana University,Bloomington,IN,39.17206,-86.52316,2025-03-14,0,0,0,0,0,0
Indiana University Indianapolis,Indianapolis,IN,39.77921,-86.17529,2025-03-14,0,0,0,0,0,0
"Innovation Research and Training, Inc.",Durham,NC,35.96456,-78.94053,2025-03-14,0,0,0,0,0,0
Institute for Systems Biology,Seattle,WA,47.62254,-122.33753,2025-03-14,0,0,0,0,0,0
"Iris Media, Inc.",Eugene,OR,44.04872,-123.08848,2025-03-14,0,0,0,0,0,0
"Isa Associates, Inc.",Arlington,VA,38.80541,-77.03984,2025-03-14,0,0,0,0,0,0
Jackson Laboratory,Bar Harbor,ME,44.36536,-68.1963,2025-03-14,0,0,0,0,0,0
Johns Hopkins University,Baltimore,MD,39.32526,-76.60513,2025-03-14,7982321.670000001,17480567.213870272,67.05150202800002,7982321.670000001,17480567.213870272,67.05150202800002
Kaiser Foundation Research Institute,Oakland,CA,37.80577,-122.26521,2025-03-14,0,0,0,0,0,0
Kean University,Union,NJ,40.67958,-74.23188,2025-03-14,0,0,0,0,0,0
Keck Graduate Institute of Applied Life Sciences,Claremont,CA,34.09248,-117.72201,2025-03-14,0,0,0,0,0,0
Kennesaw State University,Kennesaw,GA,34.03432,-84.57428,2025-03-14,0,0,0,0,0,0
Kent State University,Kent,OH,41.15242,-81.33788,2025-03-14,0,0,0,0,0,0
LSU Health Scienes Center,New Orleans,LA,29.95738,-90.08279,2025-03-14,0,0,0,0,0,0
LSU Pennington Biomedical Research Center,Baton Rouge,LA,30.40335,-91.12269,2025-03-14,0,0,0,0,0,0
La Jolla Institute for Immunology,La Jolla,CA,32.83878,-117.25324,2025-03-14,0,0,0,0,0,0
Laureate Institute for Brain Research,Tulsa,OK,36.06624,-95.91946,2025-03-14,0,0,0,0,0,0
Loma Linda University,Loma Linda,CA,34.05174,-117.26178,2025-03-14,0,0,0,0,0,0
Louisiana State University A&M College Baton Rouge,Baton Rouge,LA,30.40802,-91.18867,2025-03-14,0,0,0,0,0,0
Loyola Marymount University,Los Angeles,CA,33.96968,-118.41614,2025-03-14,0,0,0,0,0,0
Loyola University Medical Center,Maywood,IL,41.86516,-87.83338,2025-03-14,0,0,0,0,0,0
Loyola University of Chicago,Chicago,IL,41.89738,-87.62424,2025-03-14,0,0,0,0,0,0
Lurie Children's Hospital of Chicago,Chicago,IL,41.89666,-87.62292,2025-03-14,0,0,0,0,0,0
MGH Institute of Health Professions,Charlestown,MA,42.37496,-71.05421,2025-03-14,0,0,0,0,0,0
Magee-Women's Research Institute and Foundation,Pittsburgh,PA,40.43708,-79.96154,2025-03-14,0,0,0,0,0,0
Mainehealth,Portland,ME,43.65316,-70.27547,2025-03-14,5014585.419999998,11688194.112784699,46.63564440599998,5014585.419999998,11688194.112784699,46.63564440599998
Marquette University,Milwaukee,WI,43.03873,-87.92331,2025-03-14,0,0,0,0,0,0
Massachusetts General Hospital,Boston,MA,42.3632,-71.06877,2025-03-14,0,0,0,0,0,0
Mayo Clinic Arizona,Scottsdale,AZ,33.58911,-111.79394,2025-03-14,0,0,0,0,0,0
Mayo Clinic Jacksonville,Jacksonville,FL,30.2647,-81.44479,2025-03-14,0,0,0,0,0,0
Mayo Clinic Rochester,Rochester,MN,44.02432,-92.46011,2025-03-14,0,0,0,0,0,0
McLean Hospital,Belmont,MA,42.39362,-71.19114,2025-03-14,0,0,0,0,0,0
Medgar Evers College,New York,NY,40.66714,-73.95183,2025-03-14,0,0,0,0,0,0
Medical College of Wisconsin,Milwaukee,WI,43.04575,-88.02037,2025-03-14,59548.16,140990.54462712453,0.559752704,59548.16,140990.54462712453,0.559752704
Medical University of South Carolina,Charleston,SC,32.78675,-79.94726,2025-03-14,0,0,0,0,0,0
Meharry Medical College,Nashville,TN,36.1669,-86.80615,2025-03-14,0,0,0,0,0,0
Michigan State University,East Lansing,MI,42.65398,-84.49203,2025-03-14,2126225.4000000004,5416862.892309229,20.624386380000004,2126225.4000000004,5416862.892309229,20.624386380000004
"Migrant Clinicians Network, Inc.",Austin,TX,30.26688,-97.78802,2025-03-14,0,0,0,0,0,0
"Missouri Breaks Research, Inc.",Eagle Butte,SD,45.4277,-101.07448,2025-03-14,0,0,0,0,0,0
Moffitt Cancer Center,Tampa,FL,28.06258,-82.4196,2025-03-14,0,0,0,0,0,0
Monell Chemical Senses Center,Philadelphia,PA,39.95574,-75.19306,2025-03-14,0,0,0,0,0,0
Montana State University - Bozeman,Bozeman,MT,45.66196,-111.05994,2025-03-14,0,0,0,0,0,0
Morehouse School of Medicine,Atlanta,GA,33.74661,-84.41478,2025-03-14,43554.300000000745,127923.49690591138,0.5139407400000088,43554.300000000745,127923.49690591138,0.5139407400000088
Mount Desert Island Biological Lab,Salsbury Cove,ME,44.43066,-68.28841,2025-03-14,0,0,0,0,0,0
"My Brother's Keeper, Inc.",Ridgeland,MS,32.41974,-90.12573,2025-03-14,0,0,0,0,0,0
"NDRI-USA, Inc.",New York,NY,40.74287,-73.99233,2025-03-14,0,0,0,0,0,0
National Medical Association,Silver Spring,MD,38.99487,-77.03025,2025-03-14,0,0,0,0,0,0
National Opinion Research Center,Chicago,IL,41.78587,-87.59754,2025-03-14,0,0,0,0,0,0
Neurovations,Napa,CA,38.32538,-122.29199,2025-03-14,0,0,0,0,0,0
New Jersey Institute of Technology,Newark,NJ,40.74292,-74.17624,2025-03-14,0,0,0,0,0,0
New Mexico State University Las Cruces,Las Cruces,NM,32.27904,-106.7557,2025-03-14,0,0,0,0,0,0
New School University,New York,NY,40.73538,-73.99724,2025-03-14,0,0,0,0,0,0
New York Blood Center,New York,NY,40.76519,-73.95992,2025-03-14,235695,555599.4888019196,1.6734345,235695,555599.4888019196,1.6734345
New York Hall of Science,Corona,NY,40.75257,-73.85476,2025-03-14,0,0,0,0,0,0
New York Medical College,Valhalla,NY,41.08553,-73.81025,2025-03-14,0,0,0,0,0,0
New York University,Mineola,NY,40.7415,-73.64036,2025-03-14,0,0,0,0,0,0
New York University,New York,NY,40.66989,-73.97435,2025-03-14,0,0,0,0,0,0
New York University,New York,NY,40.72966,-73.99702,2025-03-14,0,0,0,0,0,0
North Carolina A&T State University,Greensboro,NC,36.07418,-79.77596,2025-03-14,0,0,0,0,0,0
North Carolina Central University,Durham,NC,35.97467,-78.89805,2025-03-14,0,0,0,0,0,0
North Carolina Department of Health and Human Services,Raleigh,NC,35.67064,-78.66373,2025-03-14,0,0,0,0,0,0
North Carolina State University Raleigh,Raleigh,NC,35.78468,-78.67723,2025-03-14,0,0,0,0,0,0
Northeastern University,Boston,MA,42.34005,-71.08889,2025-03-14,0,0,0,0,0,0
Northwestern University,Chicago,IL,42.05048,-87.68005,2025-03-14,1124231.37,3216028.645953178,11.129890563000002,1124231.37,3216028.645953178,11.129890563000002
Nova Southeastern University,Fort Lauderdale-Davie,FL,26.07761,-80.24256,2025-03-14,0,0,0,0,0,0
"Ochin, Inc.",Portland,OR,45.50926,-122.67766,2025-03-14,0,0,0,0,0,0
Ohio State University,Columbus,OH,39.9996,-83.03313,2025-03-14,893946.6300000001,2331394.3571992856,8.850071637000001,893946.6300000001,2331394.3571992856,8.850071637000001
Oklahoma Medical Research Foundation,Oklahoma City,OK,35.48299,-97.49781,2025-03-14,0,0,0,0,0,0
Oklahoma State University Stillwater,Stillwater,OK,36.11563,-97.05804,2025-03-14,0,0,0,0,0,0
Old Dominion University,Norfolk,VA,36.88899,-76.30348,2025-03-14,0,0,0,0,0,0
Olipha Inc,Wilmington,DE,39.74854,-75.54767,2025-03-14,0,0,0,0,0,0
Oregon Health & Science University,Portland,OR,45.49882,-122.68565,2025-03-14,0,0,0,0,0,0
Pacific Institute for Research and Evaluation,Beltsville,MD,39.05068,-76.93727,2025-03-14,689462.59,1509861.1211372141,5.791485756,689462.59,1509861.1211372141,5.791485756
